[{"id":"3410000-S202600001","type":"civildefense","name":"중앙로역 푸르지오 더센트럴","address":"대구광역시 중구 서성로 60 (서성로1가, 중앙로역 푸르지오 더 센트럴)","sido":"대구광역시","sigungu":"중구","lat":35.871639,"lng":128.587595},{"id":"3410000-S198600003","type":"civildefense","name":"청운맨션아파트 전체 동 지하1층","address":"대구광역시 중구 동덕로 33 (대봉동, 청운맨션아파트)","sido":"대구광역시","sigungu":"중구","lat":35.858154,"lng":128.604992},{"id":"3410000-S201100004","type":"civildefense","name":"동인삼정그린코아 지하1층~2층","address":"대구광역시 중구 동덕로30길 53 (동인동4가, 동인동삼정그린코아아파트)","sido":"대구광역시","sigungu":"중구","lat":35.867736,"lng":128.607413},{"id":"3410000-S201600002","type":"civildefense","name":"경북대학교병원(외래진료동 지하식당 1층)","address":"대구광역시 중구 동덕로 130-0 (삼덕동2가, 경북대학교병원)","sido":"대구광역시","sigungu":"중구","lat":35.865659,"lng":128.603916},{"id":"3410000-S201100007","type":"civildefense","name":"센트로팰리스 지하주차장 1층~3층","address":"대구광역시 중구 대봉로 260 (대봉동, 센트로팰리스아파트)","sido":"대구광역시","sigungu":"중구","lat":35.861975,"lng":128.600282},{"id":"3410000-S199200032","type":"civildefense","name":"드림상호저축은행 지하1~3층","address":"대구광역시 중구 국채보상로 645 (동인동2가, 드림상호저축은행)","sido":"대구광역시","sigungu":"중구","lat":35.870018,"lng":128.601332},{"id":"3410000-S200800001","type":"civildefense","name":"남산휴먼시아1단지 지하주차장 1층~2층","address":"대구광역시 중구 달구벌대로 1960 (남산동, 남산휴먼시아1단지아파트)","sido":"대구광역시","sigungu":"중구","lat":35.862474,"lng":128.578262},{"id":"3410000-S201500001","type":"civildefense","name":"극동스타클래스남산 지하주차장 1층","address":"대구광역시 중구 남산로 30 (남산동, 극동 스타클래스 남산)","sido":"대구광역시","sigungu":"중구","lat":35.859014,"lng":128.583567},{"id":"3410000-S201600001","type":"civildefense","name":"대봉태왕아너스 지하주차장 1층~2층","address":"대구광역시 중구 동덕로 55 (대봉동, 대봉태왕아너스)","sido":"대구광역시","sigungu":"중구","lat":35.860076,"lng":128.603081},{"id":"3410000-S199200031","type":"civildefense","name":"MS재건병원 지하1층","address":"대구광역시 중구 동덕로 194, MS재건병원 (동인동1가)","sido":"대구광역시","sigungu":"중구","lat":35.871859,"lng":128.604715},{"id":"3410000-S201000007","type":"civildefense","name":"대봉화성파크드림아파트(전 동 지하1층~2층)","address":"대구광역시 중구 명덕로55길 25 (대봉동, 대봉화성파크드림아파트)","sido":"대구광역시","sigungu":"중구","lat":35.856666,"lng":128.59958},{"id":"3410000-S199900002","type":"civildefense","name":"대구광역시 중구청 지하1층~2층","address":"대구광역시 중구 국채보상로139길 1 (동인동2가, 중구청)","sido":"대구광역시","sigungu":"중구","lat":35.869203,"lng":128.60629},{"id":"3410000-S201100009","type":"civildefense","name":"봉산문화회관 지하주차장 1층","address":"대구광역시 중구 봉산문화길 77 (봉산동, 봉산문화회관)","sido":"대구광역시","sigungu":"중구","lat":35.863463,"lng":128.596799},{"id":"3410000-S199300020","type":"civildefense","name":"보성황실아파트 지하주차장 1층","address":"대구광역시 중구 남산로13길 17 (남산동, 보성황실아파트)","sido":"대구광역시","sigungu":"중구","lat":35.861676,"lng":128.58138},{"id":"3410000-S200300001","type":"civildefense","name":"명덕지하철역 지하1층~2층","address":"대구광역시 중구 명덕로 지하 185 (남산동, 명덕역)","sido":"대구광역시","sigungu":"중구","lat":35.857383,"lng":128.59041},{"id":"3410000-S198800001","type":"civildefense","name":"삼성생명빌딩 지하1층~2층","address":"대구광역시 중구 국채보상로 528 (하서동, 삼성생명빌딩)","sido":"대구광역시","sigungu":"중구","lat":35.869982,"lng":128.588406},{"id":"3410000-S201000015","type":"civildefense","name":"책임크레텍 지하1층","address":"대구광역시 중구 달성로 100, 크레텍책임(주) 101동 지하1층 (인교동)","sido":"대구광역시","sigungu":"중구","lat":35.874028,"lng":128.582549},{"id":"3410000-S201000006","type":"civildefense","name":"청라언덕역 지하1층~4층","address":"대구광역시 중구 달구벌대로 2000 (남산동)","sido":"대구광역시","sigungu":"중구","lat":35.864742,"lng":128.582731},{"id":"3410000-S201700001","type":"civildefense","name":"국채보상공원 지하주차장 1층~3층","address":"대구광역시 중구 공평로10길 25-0 (동인동2가)","sido":"대구광역시","sigungu":"중구","lat":35.86833,"lng":128.601446},{"id":"3410000-S199400003","type":"civildefense","name":"보성송림맨션 지하주차장 1층","address":"대구광역시 중구 남산로4길 91 (남산동, 보성송림아파트)","sido":"대구광역시","sigungu":"중구","lat":35.860939,"lng":128.585521},{"id":"3410000-S200600005","type":"civildefense","name":"경대병원역 지하1층~3층","address":"대구광역시 중구 달구벌대로 지하 2190 (삼덕동2가, 경대병원역)","sido":"대구광역시","sigungu":"중구","lat":35.862937,"lng":128.603081},{"id":"3410000-S199800004","type":"civildefense","name":"대구지하철반월당역 지하1층~4층","address":"대구광역시 중구 달구벌대로 지하2100, 반월당역 (덕산동)","sido":"대구광역시","sigungu":"중구","lat":35.865009,"lng":128.59372},{"id":"3410000-S198000003","type":"civildefense","name":"신성미소시티 지하1층~5층","address":"대구광역시 중구 달구벌대로 2051 (계산동2가, 신성미소시티아파트)","sido":"대구광역시","sigungu":"중구","lat":35.866727,"lng":128.588198},{"id":"3410000-S200600003","type":"civildefense","name":"메트로프라자 지하상가 지하1층","address":"대구광역시 중구 달구벌대로 지하 2160 (봉산동, 메트로프라자)","sido":"대구광역시","sigungu":"중구","lat":35.863574,"lng":128.599892},{"id":"3410000-S210600001","type":"civildefense","name":"동성로 중앙지하주차장 1층","address":"대구광역시 중구 동성로2길 80 (공평동, 2.28 기념중앙공원)","sido":"대구광역시","sigungu":"중구","lat":35.869292,"lng":128.597156},{"id":"3410000-S199300010","type":"civildefense","name":"진석타워 지하2층~5층","address":"대구광역시 중구 동덕로 115 (삼덕동2가, 진석타워)","sido":"대구광역시","sigungu":"중구","lat":35.865085,"lng":128.60273},{"id":"3410000-S199300008","type":"civildefense","name":"대백프라자 지하주차장 2층~5층","address":"대구광역시 중구 명덕로 333 (대봉동, 대백프라자)","sido":"대구광역시","sigungu":"중구","lat":35.855331,"lng":128.606407},{"id":"3410000-S201100008","type":"civildefense","name":"삼승슈퍼타워 지하1층","address":"대구광역시 중구 신암로 6 (동인동1가, 삼승슈퍼타워아파트)","sido":"대구광역시","sigungu":"중구","lat":35.873022,"lng":128.604957},{"id":"3410000-S198500012","type":"civildefense","name":"대현프리몰 지하상가 지하1층","address":"대구광역시 중구 국채보상로 지하 580 (동성로2가, 대현프리몰)","sido":"대구광역시","sigungu":"중구","lat":35.87085,"lng":128.594131},{"id":"3410000-S201000010","type":"civildefense","name":"태왕아너스스카이 지하1층~2층","address":"대구광역시 중구 달구벌대로 1975 (대신동, 태왕아너스스카이아파트)","sido":"대구광역시","sigungu":"중구","lat":35.864232,"lng":128.579494},{"id":"3410000-S200800002","type":"civildefense","name":"남산그린타운 지하주차장 1층~2층","address":"대구광역시 중구 달구벌대로 1950 (남산동, 남산그린타운)","sido":"대구광역시","sigungu":"중구","lat":35.862403,"lng":128.578044},{"id":"3410000-S200300024","type":"civildefense","name":"대구광역시청 지하1층","address":"대구광역시 중구 공평로 88 (동인동1가, 대구광역시청)","sido":"대구광역시","sigungu":"중구","lat":35.871511,"lng":128.600887},{"id":"3410000-S199100011","type":"civildefense","name":"대신지하상가 지하1층~2층","address":"대구광역시 중구 국채보상로 지하470, 대신지하상가 (대신동)","sido":"대구광역시","sigungu":"중구","lat":35.870461,"lng":128.581855},{"id":"3410000-S199700002","type":"civildefense","name":"중앙로 지하철역 지하1층~2층","address":"대구광역시 중구 중앙대로 지하 424 (남일동, 중앙로역)","sido":"대구광역시","sigungu":"중구","lat":35.869921,"lng":128.593914},{"id":"3410000-S200600001","type":"civildefense","name":"메트로센터 지하1층","address":"대구광역시 중구 달구벌대로 지하2100, 반월당역 (덕산동)","sido":"대구광역시","sigungu":"중구","lat":35.865009,"lng":128.59372},{"id":"3410000-S201800001","type":"civildefense","name":"대구역센트럴자이 지하1층~2층","address":"대구광역시 중구 서성로 99, 지하1층 (수창동, 대구역센트럴자이)","sido":"대구광역시","sigungu":"중구","lat":35.875785,"lng":128.587728},{"id":"3410000-S201600003","type":"civildefense","name":"삼덕교회기념관 지하1층~2층","address":"대구광역시 중구 공평로 22 (삼덕동2가)","sido":"대구광역시","sigungu":"중구","lat":35.866032,"lng":128.600125},{"id":"3410000-S200400002","type":"civildefense","name":"삼성금융프라자 지하1층","address":"대구광역시 중구 달구벌대로 2095 (덕산동, 삼성생명)","sido":"대구광역시","sigungu":"중구","lat":35.866144,"lng":128.592682},{"id":"3410000-S201000026","type":"civildefense","name":"청라 센트럴파크 지하주차장 1층~2층","address":"대구광역시 중구 달구벌대로 1970(남산동, 청라 센트럴파크)","sido":"대구광역시","sigungu":"중구","lat":35.863824,"lng":128.579773},{"id":"3410000-S199300014","type":"civildefense","name":"KT대구지사 지하1~5층","address":"대구광역시 중구 동덕로 167 (동인동2가, KT 대구지사(동인동우체국))","sido":"대구광역시","sigungu":"중구","lat":35.869669,"lng":128.603896},{"id":"3410000-S202600002","type":"civildefense","name":"힐스테이트 도원센트럴","address":"대구광역시 중구 태평로 50 (도원동, 힐스테이트 도원 센트럴)","sido":"대구광역시","sigungu":"중구","lat":35.877149,"lng":128.583253},{"id":"3420000-S201000007","type":"civildefense","name":"금사리하이빌아파트 지하주차장1층","address":"대구광역시 동구 해동로 254 (검사동, 금사리하이빌)","sido":"대구광역시","sigungu":"동구","lat":35.883837,"lng":128.656009},{"id":"3420000-S199800035","type":"civildefense","name":"안심지하철역건물 지하1층","address":"대구광역시 동구 안심로 지하 455 (괴전동)","sido":"대구광역시","sigungu":"동구","lat":35.871368,"lng":128.733496},{"id":"3420000-S199800004","type":"civildefense","name":"제림햇빛촌아파트 지하주차장1층","address":"대구광역시 동구 공항로52길 28 (지저동, 제림햇빛촌아파트)","sido":"대구광역시","sigungu":"동구","lat":35.892971,"lng":128.639226},{"id":"3420000-S201700002","type":"civildefense","name":"이시아폴리스더샵2차아파트 지하주차장1층","address":"대구광역시 동구 팔공로 274 (봉무동, 이시아폴리스더샵2차)","sido":"대구광역시","sigungu":"동구","lat":35.923781,"lng":128.643183},{"id":"3420000-S199700043","type":"civildefense","name":"대동병원건물 지하1층","address":"대구광역시 동구 화랑로 169 (효목동, 대동병원)","sido":"대구광역시","sigungu":"동구","lat":35.876268,"lng":128.644033},{"id":"3420000-S199800006","type":"civildefense","name":"용계지하철역건물 지하1층","address":"대구광역시 동구 동촌로 지하383, 용계역 (용계동)","sido":"대구광역시","sigungu":"동구","lat":35.876521,"lng":128.681195},{"id":"3420000-S199400002","type":"civildefense","name":"안심주공1단지아파트 동지하","address":"대구광역시 동구 안심로22길 3 (율하동, 안심주공1단지임대아파트)","sido":"대구광역시","sigungu":"동구","lat":35.866782,"lng":128.69671},{"id":"3420000-S201100014","type":"civildefense","name":"율하휴먼시아10단지아파트 지하주차장1층","address":"대구광역시 동구 율하동로8길 16 (율하동, 율하휴먼시아10단지)","sido":"대구광역시","sigungu":"동구","lat":35.861692,"lng":128.703172},{"id":"3420000-S200300026","type":"civildefense","name":"아름다운나날1단지아파트 지하주차장1층","address":"대구광역시 동구 안심로 402-0 (신서동)","sido":"대구광역시","sigungu":"동구","lat":35.868437,"lng":128.728443},{"id":"3420000-S199800003","type":"civildefense","name":"신기지하철역건물 지하1층","address":"대구광역시 동구 안심로 지하 159 (신기동, 신기역)","sido":"대구광역시","sigungu":"동구","lat":35.866871,"lng":128.702106},{"id":"3420000-S202100004","type":"civildefense","name":"LH뉴웰시티아파트 지하주차장1층","address":"대구광역시 동구 동화천로77길 30(지묘동, LH뉴웰시티)","sido":"대구광역시","sigungu":"동구","lat":35.941412,"lng":128.633058},{"id":"3420000-S201700001","type":"civildefense","name":"율하휴먼시아7단지아파트 지하주차장1층","address":"대구광역시 동구 안심로22길 55 (율하동, 율하휴먼시아7단지)","sido":"대구광역시","sigungu":"동구","lat":35.863576,"lng":128.698095},{"id":"3420000-S200300027","type":"civildefense","name":"아름다운나날2단지아파트 지하주차장1층","address":"대구광역시 동구 동호로 88-0 (신서동)","sido":"대구광역시","sigungu":"동구","lat":35.866543,"lng":128.726812},{"id":"3420000-S201100021","type":"civildefense","name":"신서동퀸덤아파트 지하주차장1층","address":"대구광역시 동구 신서로 72-0 (신서동)","sido":"대구광역시","sigungu":"동구","lat":35.874385,"lng":128.725522},{"id":"3420000-S199200001","type":"civildefense","name":"불로우방맨션아파트 101동 지하1층주차장","address":"대구광역시 동구 공항로 150, 101동 지하1층 (불로동, 불로우방맨션)","sido":"대구광역시","sigungu":"동구","lat":35.900671,"lng":128.630921},{"id":"3420000-S200800002","type":"civildefense","name":"신일해피트리아파트 지하주차장1층","address":"대구광역시 동구 반야월로 370-0 (신서동)","sido":"대구광역시","sigungu":"동구","lat":35.870684,"lng":128.729203},{"id":"3420000-S201100017","type":"civildefense","name":"율하휴먼시아15단지아파트 지하주차장1층","address":"대구광역시 동구 금호강변로3길 9 (율하동, 율하휴먼시아15단지)","sido":"대구광역시","sigungu":"동구","lat":35.869299,"lng":128.690427},{"id":"3420000-S201100023","type":"civildefense","name":"신서화성파크드림아파트 지하주차장1층","address":"대구광역시 동구 반야월북로 221-0 (신서동)","sido":"대구광역시","sigungu":"동구","lat":35.872955,"lng":128.721948},{"id":"3420000-S201000009","type":"civildefense","name":"유선아덴힐즈아파트 지하주차장1층","address":"대구광역시 동구 동촌로25길 69 (방촌동)","sido":"대구광역시","sigungu":"동구","lat":35.883601,"lng":128.662252},{"id":"3420000-S201100018","type":"civildefense","name":"롯데마트대구율하점건물 지하1층","address":"대구광역시 동구 안심로 80 (율하동, 롯데쇼핑프라자)","sido":"대구광역시","sigungu":"동구","lat":35.868462,"lng":128.693727},{"id":"3420000-S200600004","type":"civildefense","name":"용계삼산타운아파트 지하주차장1층","address":"대구광역시 동구 반야월로6길 20(용계동, 용계삼산타운)","sido":"대구광역시","sigungu":"동구","lat":35.87327,"lng":128.692556},{"id":"3420000-S201100010","type":"civildefense","name":"동촌강나루타운아파트 2주차장지하1층~2층","address":"대구광역시 동구 효동로 108 (효목동, 동촌강나루타운)","sido":"대구광역시","sigungu":"동구","lat":35.885941,"lng":128.642511},{"id":"3420000-S200800001","type":"civildefense","name":"신서롯데캐슬레전드아파트 지하주차장1층","address":"대구광역시 동구 안심로73길 22-0 (신서동)","sido":"대구광역시","sigungu":"동구","lat":35.870334,"lng":128.725237},{"id":"3420000-S199200015","type":"civildefense","name":"각산지하철역건물 지하1층","address":"대구광역시 동구 안심로 지하 363 (신서동)","sido":"대구광역시","sigungu":"동구","lat":35.868105,"lng":128.724089},{"id":"3420000-S200300034","type":"civildefense","name":"신암그린타운아파트 지하주차장1층","address":"대구광역시 동구 신성로 30(신암동, 신암그린타운)","sido":"대구광역시","sigungu":"동구","lat":35.878182,"lng":128.610456},{"id":"3420000-S199600025","type":"civildefense","name":"동신우방타운아파트 지하주차장 1층","address":"대구광역시 동구 송라로11길 86 (신천동, 동신우방아파트)","sido":"대구광역시","sigungu":"동구","lat":35.871131,"lng":128.614286},{"id":"3420000-S202300002","type":"civildefense","name":"대구혁신센텀힐즈아파트 지하주차장1층","address":"대구광역시 동구 혁신대로 450 (대림동, 대구혁신센텀힐즈)","sido":"대구광역시","sigungu":"동구","lat":35.873698,"lng":128.7454},{"id":"3420000-S199400006","type":"civildefense","name":"대구일마이스터고등학교건물 지하1층","address":"대구광역시 동구 효동로 48 (효목동, 대구일마이스터고등학교)","sido":"대구광역시","sigungu":"동구","lat":35.882016,"lng":128.646302},{"id":"3420000-S202500003","type":"civildefense","name":"동대구역센트럴시티자이아파트 지하주차장 1,2층","address":"대구광역시 동구 송라로10길 33 (신천동, 동대구역 센트럴시티자이)","sido":"대구광역시","sigungu":"동구","lat":35.872059,"lng":128.622666},{"id":"3420000-S200200001","type":"civildefense","name":"봉무청구새들마을아파트 지하주차장1층","address":"대구광역시 동구 팔공로 322-5 (봉무동, 봉무청구새들마을(전동 지하))","sido":"대구광역시","sigungu":"동구","lat":35.928835,"lng":128.642137},{"id":"3420000-S199800044","type":"civildefense","name":"동대구지하철역건물 지하1층","address":"대구광역시 동구 동대구로 지하530, 동대구역지하철 (신천동)","sido":"대구광역시","sigungu":"동구","lat":35.87695,"lng":128.626949},{"id":"3420000-S200800003","type":"civildefense","name":"신암건영캐스빌아파트 지하주차장1층","address":"대구광역시 동구 신암남로 50(신암동, 신암건영캐스빌)","sido":"대구광역시","sigungu":"동구","lat":35.878565,"lng":128.621937},{"id":"3420000-S200200002","type":"civildefense","name":"성호그린빌라트 지하주차장1층","address":"대구광역시 동구 방촌로1길 109 (방촌동)","sido":"대구광역시","sigungu":"동구","lat":35.883466,"lng":128.666561},{"id":"3420000-S201100039","type":"civildefense","name":"동구보건소건물 지하1층","address":"대구광역시 동구 동촌로 79 (검사동, 동구보건소)","sido":"대구광역시","sigungu":"동구","lat":35.88815,"lng":128.651039},{"id":"3420000-S202400002","type":"civildefense","name":"신천자이아파트 지하주차장 1층","address":"대구광역시 동구 신암로16길 25 (신천동, 신천자이아파트)","sido":"대구광역시","sigungu":"동구","lat":35.876611,"lng":128.611149},{"id":"3420000-S199000009","type":"civildefense","name":"청호아파트 지하주차장1층","address":"대구광역시 동구 팔공로25길 46 (불로동, 청호아파트)","sido":"대구광역시","sigungu":"동구","lat":35.911122,"lng":128.636304},{"id":"3420000-S201100035","type":"civildefense","name":"동구청건물 지하1층","address":"대구광역시 동구 아양로 207 (신암동, 동구청)","sido":"대구광역시","sigungu":"동구","lat":35.886212,"lng":128.635825},{"id":"3420000-S199200012","type":"civildefense","name":"반야월지하철역건물 지하1층","address":"대구광역시 동구 안심로 지하 261 (동호동)","sido":"대구광역시","sigungu":"동구","lat":35.866133,"lng":128.713328},{"id":"3420000-S200700001","type":"civildefense","name":"신천주공2아파트 지하주차장1층","address":"대구광역시 동구 국채보상로155길 54 (신천동, 신천주공2차아파트)","sido":"대구광역시","sigungu":"동구","lat":35.872824,"lng":128.613213},{"id":"3420000-S199700028","type":"civildefense","name":"청구아파트 지하주차장1층~2층","address":"대구광역시 동구 팔공로24길 131-0 (도동, 도동청구맨션)","sido":"대구광역시","sigungu":"동구","lat":35.909393,"lng":128.648677},{"id":"3420000-S200000027","type":"civildefense","name":"부민스위트빌아파트 지하주차장1층","address":"대구광역시 동구 해동로2길 37 (지저동, 부민스위트빌)","sido":"대구광역시","sigungu":"동구","lat":35.896357,"lng":128.636361},{"id":"3420000-S199900124","type":"civildefense","name":"KT 동촌빌딩건물 지하1층","address":"대구광역시 동구 동촌로 63 (입석동, KT)","sido":"대구광역시","sigungu":"동구","lat":35.889151,"lng":128.649514},{"id":"3420000-S200900004","type":"civildefense","name":"율하휴먼시아5단지아파트 지하주차장1층","address":"대구광역시 동구 율하서로 59 (율하동, 율하휴먼시아5단지)","sido":"대구광역시","sigungu":"동구","lat":35.864155,"lng":128.690925},{"id":"3420000-S200600002","type":"civildefense","name":"신천가람타운아파트 지하주차장1층","address":"대구광역시 동구 신암로16길 16(신천동, 가람타운)","sido":"대구광역시","sigungu":"동구","lat":35.877386,"lng":128.61039},{"id":"3420000-S200900003","type":"civildefense","name":"신암청아람아파트 지하주차장1층","address":"대구광역시 동구 신암로20길 39 (신암동, 신암청아람)","sido":"대구광역시","sigungu":"동구","lat":35.87858,"lng":128.612335},{"id":"3420000-S199800034","type":"civildefense","name":"태왕그린힐즈아파트 지하주차장1층","address":"대구광역시 동구 파계로 46 (지묘동, 태왕그린힐즈)","sido":"대구광역시","sigungu":"동구","lat":35.938543,"lng":128.639856},{"id":"3420000-S200300028","type":"civildefense","name":"아름다운나날3단지아파트 지하주차장1층","address":"대구광역시 동구 동호로 132-0 (신서동)","sido":"대구광역시","sigungu":"동구","lat":35.867271,"lng":128.731369},{"id":"3420000-S199800029","type":"civildefense","name":"팔공1차보성타운아파트 지하주차장1층","address":"대구광역시 동구 팔공로 489 (지묘동, 팔공보성아파트)","sido":"대구광역시","sigungu":"동구","lat":35.941892,"lng":128.646181},{"id":"3420000-S201000004","type":"civildefense","name":"태왕메트로시티아파트 지하주차장1층","address":"대구광역시 동구 동북로 500 (효목동, 태왕메트로시티)","sido":"대구광역시","sigungu":"동구","lat":35.880809,"lng":128.640268},{"id":"3420000-S198900019","type":"civildefense","name":"백자맨션아파트 지하주차장 1층","address":"대구광역시 동구 동촌로 346(용계동, 우방백자아파트)","sido":"대구광역시","sigungu":"동구","lat":35.877436,"lng":128.677078},{"id":"3420000-S199900163","type":"civildefense","name":"동구청역지하철건물 지하1층","address":"대구광역시 동구 신암남로 지하 169 (신암동, 큰고개역)","sido":"대구광역시","sigungu":"동구","lat":35.884301,"lng":128.631965},{"id":"3420000-S201100041","type":"civildefense","name":"진로아파트201동 지하주차장1층~2층","address":"대구광역시 동구 아양로 218 (효목동, 진로이스트타운)","sido":"대구광역시","sigungu":"동구","lat":35.885762,"lng":128.637074},{"id":"3420000-S199500005","type":"civildefense","name":"해안지하철역건물 지하1층~3층","address":"대구광역시 동구 동촌로 지하 167 (방촌동, 해안역)","sido":"대구광역시","sigungu":"동구","lat":35.883706,"lng":128.659434},{"id":"3420000-S201100031","type":"civildefense","name":"동대구우체국건물 지하1층~2층","address":"대구광역시 동구 동촌로 1 (입석동, 동대구우체국)","sido":"대구광역시","sigungu":"동구","lat":35.892027,"lng":128.64414},{"id":"3420000-S202500001","type":"civildefense","name":"해링턴플레이스동대구 지하주차장 1층","address":"대구광역시 동구 경대로 126 (신암동, 해링턴플레이스동대구아파트)","sido":"대구광역시","sigungu":"동구","lat":35.89042,"lng":128.620171},{"id":"3420000-S198900016","type":"civildefense","name":"강변1차아파트 지하주차장1층~2층","address":"대구광역시 동구 동촌로54길 13 (방촌동, 강변아파트)","sido":"대구광역시","sigungu":"동구","lat":35.8788,"lng":128.668276},{"id":"3420000-S200700002","type":"civildefense","name":"우방푸른타운아파트 지하주차장1층","address":"대구광역시 동구 국채보상로159길 41 (신천동, 우방푸른타운)","sido":"대구광역시","sigungu":"동구","lat":35.869928,"lng":128.616131},{"id":"3420000-S201100005","type":"civildefense","name":"큰고개오거리지하도건물 지하1층","address":"대구광역시 동구 아양로 지하 189-1 (신암동)","sido":"대구광역시","sigungu":"동구","lat":35.885893,"lng":128.633945},{"id":"3420000-S202400003","type":"civildefense","name":"더샵디어엘로아파트 지하주차장2층~3층","address":"대구광역시 동구 화랑로 33 (신천동)","sido":"대구광역시","sigungu":"동구","lat":35.869375,"lng":128.631763},{"id":"3420000-S201100013","type":"civildefense","name":"율하센트럴파크8단지 지하주차장1층","address":"대구광역시 동구 안심로22길 75 (율하동, 율하휴먼시아8단지)","sido":"대구광역시","sigungu":"동구","lat":35.863386,"lng":128.699991},{"id":"3420000-S201100020","type":"civildefense","name":"각산푸르지오2단지아파트 지하주차장1층","address":"대구광역시 동구 경안로 822-0 (각산동)","sido":"대구광역시","sigungu":"동구","lat":35.87521,"lng":128.716175},{"id":"3420000-S199300002","type":"civildefense","name":"불로강변아파트 지하주차장1층","address":"대구광역시 동구 방천로3길 30 (불로동, 불로강변아파트)","sido":"대구광역시","sigungu":"동구","lat":35.89703,"lng":128.631428},{"id":"3420000-S201100022","type":"civildefense","name":"각산태영데시앙아파트 지하주차장1층","address":"대구광역시 동구 반야월북로 123-0 (각산동)","sido":"대구광역시","sigungu":"동구","lat":35.873361,"lng":128.710649},{"id":"3420000-S199800030","type":"civildefense","name":"팔공2차보성타운아파트 지하주차장1층","address":"대구광역시 동구 팔공로101길 55 (지묘동, 팔공2차보성아파트)","sido":"대구광역시","sigungu":"동구","lat":35.941166,"lng":128.641507},{"id":"3420000-S200300025","type":"civildefense","name":"대경넥스빌아파트 지하주차장1층","address":"대구광역시 동구 안심로 400-0 (신서동)","sido":"대구광역시","sigungu":"동구","lat":35.868299,"lng":128.728136},{"id":"3420000-S202100002","type":"civildefense","name":"대구혁신LH13단지아파트 지하주차장1층","address":"대구광역시 동구 초례로 66(숙천동, 대구신서혁신엘에이치천년나무13단지)","sido":"대구광역시","sigungu":"동구","lat":35.880804,"lng":128.752376},{"id":"3420000-S201500001","type":"civildefense","name":"한국장학재단본사건물 지하1층","address":"대구광역시 동구 신암로 125(신암동)","sido":"대구광역시","sigungu":"동구","lat":35.881115,"lng":128.613023},{"id":"3420000-S201100036","type":"civildefense","name":"신천지하철역 건물 지하1층","address":"대구광역시 동구 동부로 지하41, 신천역 (신천동)","sido":"대구광역시","sigungu":"동구","lat":35.874616,"lng":128.617701},{"id":"3420000-S200800004","type":"civildefense","name":"큰고개웰그린아파트 지하주차장1층","address":"대구광역시 동구 아양로 124 (신암동, 큰고개웰그린101)","sido":"대구광역시","sigungu":"동구","lat":35.88472,"lng":128.627068},{"id":"3420000-S198900017","type":"civildefense","name":"강변2차아파트 지하주차장1층~2층","address":"대구광역시 동구 동촌로56길 36 (방촌동, 강변아파트)","sido":"대구광역시","sigungu":"동구","lat":35.877915,"lng":128.66941},{"id":"3420000-S199600012","type":"civildefense","name":"우방강촌아파트 113동, 114동지하주차장1층~2층","address":"대구광역시 동구 화랑로80길 33 (방촌동, 우방강촌마을)","sido":"대구광역시","sigungu":"동구","lat":35.875386,"lng":128.667125},{"id":"3420000-S201600004","type":"civildefense","name":"방촌우방맨션아파트 지하주차장1층~2층","address":"대구광역시 동구 화랑로 407 (방촌동, 방촌우방맨션)","sido":"대구광역시","sigungu":"동구","lat":35.877327,"lng":128.66861},{"id":"3420000-S199800002","type":"civildefense","name":"율하지하철역건물 지하1층","address":"대구광역시 동구 안심로 지하 57 (율하동, 율하역)","sido":"대구광역시","sigungu":"동구","lat":35.870182,"lng":128.692577},{"id":"3420000-S199700032","type":"civildefense","name":"보성강남아파트 지하주차장1층~2층","address":"대구광역시 동구 화랑로88길 30 (방촌동, 보성강남타운)","sido":"대구광역시","sigungu":"동구","lat":35.874693,"lng":128.669387},{"id":"3420000-S199800033","type":"civildefense","name":"왕산우방타운아파트 지하주차장1층","address":"대구광역시 동구 파계로6길 30 (지묘동, 왕산우방타운)","sido":"대구광역시","sigungu":"동구","lat":35.939974,"lng":128.640124},{"id":"3420000-S201100011","type":"civildefense","name":"율하휴먼시아6단지아파트 지하주차장1층","address":"대구광역시 동구 안심로16길 45 (율하동, 율하휴먼시아6단지)","sido":"대구광역시","sigungu":"동구","lat":35.863964,"lng":128.694309},{"id":"3420000-S201000008","type":"civildefense","name":"현대방촌맨션아파트 지하주차장1층~2층","address":"대구광역시 동구 화랑로91길 7 (방촌동, 현대주택방촌맨션)","sido":"대구광역시","sigungu":"동구","lat":35.87649,"lng":128.674045},{"id":"3420000-S202300001","type":"civildefense","name":"동대구에일린의뜰아파트 지하주차장2층","address":"대구광역시 동구 아양로9길 35 (신암동, 동대구 에일린의 뜰)","sido":"대구광역시","sigungu":"동구","lat":35.88528,"lng":128.618184},{"id":"3420000-S199900089","type":"civildefense","name":"동촌화성타운아파트 지하주차장1층","address":"대구광역시 동구 동촌로6길 3 (입석동, 동촌화성타운)","sido":"대구광역시","sigungu":"동구","lat":35.889783,"lng":128.645907},{"id":"3420000-S199700027","type":"civildefense","name":"아양교지하철역건물 지하1~4층","address":"대구광역시 동구 아양로 지하 245 (신암동, 아양교역)","sido":"대구광역시","sigungu":"동구","lat":35.887271,"lng":128.639626},{"id":"3420000-S202500004","type":"civildefense","name":"동대구푸르지오브리센트 지하주차장 1,2층","address":"대구광역시 동구 효목로5길 55 (효목동, 동대구푸르지오브리센트아파트)","sido":"대구광역시","sigungu":"동구","lat":35.87592,"lng":128.636537},{"id":"3420000-S201100033","type":"civildefense","name":"대구교육팔공산수련원건물 지하1층","address":"대구광역시 동구 용천로 538 (신무동)","sido":"대구광역시","sigungu":"동구","lat":35.994336,"lng":128.664268},{"id":"3420000-S201100009","type":"civildefense","name":"화성파크드림 이스트밸리 지하주차장1층","address":"대구광역시 동구 송라로10길 34 (신천동, 화성파크드림이스트밸리)","sido":"대구광역시","sigungu":"동구","lat":35.871825,"lng":128.622409},{"id":"3420000-S199800008","type":"civildefense","name":"정동고등학교건물 지하1층","address":"대구광역시 동구 용계로1길 49, 정동고등학교 (용계동)","sido":"대구광역시","sigungu":"동구","lat":35.87639,"lng":128.692783},{"id":"3420000-S199900203","type":"civildefense","name":"한전동대구지점건물 지하1층","address":"대구광역시 동구 화랑로 135 (효목동, 한국전력공사)","sido":"대구광역시","sigungu":"동구","lat":35.874544,"lng":128.641013},{"id":"3420000-S200900005","type":"civildefense","name":"신암뜨란채아파트 지하주차장1층","address":"대구광역시 동구 아양로7길 12 (신암동, 신암뜨란채)","sido":"대구광역시","sigungu":"동구","lat":35.882904,"lng":128.617013},{"id":"3420000-S201100007","type":"civildefense","name":"신천역더뷰파크아파트 지하주차장1층","address":"대구광역시 동구 동부로 20 (신천동, 신천주공그린빌3단지)","sido":"대구광역시","sigungu":"동구","lat":35.873568,"lng":128.614664},{"id":"3420000-S200600003","type":"civildefense","name":"강변동서마을아파트 지하주차장1층","address":"대구광역시 동구 화랑로100길 17(용계동, 강변동서마을)","sido":"대구광역시","sigungu":"동구","lat":35.873539,"lng":128.678598},{"id":"3420000-S202500002","type":"civildefense","name":"이안센트럴D 지하주차장 1,2층","address":"대구광역시 동구 동대구로 577 (신암동, 이안센트럴D)","sido":"대구광역시","sigungu":"동구","lat":35.881095,"lng":128.625489},{"id":"3420000-S201600003","type":"civildefense","name":"동대구유성푸르나임아파트 지하주차장1층","address":"대구광역시 동구 동부로22길 48, 유성푸르나임 (신천동)","sido":"대구광역시","sigungu":"동구","lat":35.872394,"lng":128.626244},{"id":"3420000-S202400001","type":"civildefense","name":"동대구더센트로데시앙아파트지하 1층","address":"대구광역시 동구 신암로20길 63 (신암동, 동대구더센트로데시앙)","sido":"대구광역시","sigungu":"동구","lat":35.877517,"lng":128.613314},{"id":"3420000-S201100030","type":"civildefense","name":"동촌동지하철역건물 지하1층~2층","address":"대구광역시 동구 해동로 지하 197 (검사동, 동촌역)","sido":"대구광역시","sigungu":"동구","lat":35.886157,"lng":128.65022},{"id":"3420000-S199800015","type":"civildefense","name":"허병원건물 지하1층","address":"대구광역시 동구 화랑로 81 (효목동, 동부허병원)","sido":"대구광역시","sigungu":"동구","lat":35.872405,"lng":128.635782},{"id":"3420000-S199800028","type":"civildefense","name":"화성명산타운아파트 지하주차장1층","address":"대구광역시 동구 파계로22길 7 (지묘동, 화성명산타운)","sido":"대구광역시","sigungu":"동구","lat":35.943794,"lng":128.638419},{"id":"3420000-S201000010","type":"civildefense","name":"팔공3차보성타운아파트 지하주차장1층","address":"대구광역시 동구 파계로 71 (지묘동, 팔공3차보성타운)","sido":"대구광역시","sigungu":"동구","lat":35.940826,"lng":128.636086},{"id":"3420000-S202100003","type":"civildefense","name":"대구혁신LH14단지아파트 지하주차장1층","address":"대구광역시 동구 초례로16길 3(숙천동, 대구신서혁신엘에이치천년나무14단지)","sido":"대구광역시","sigungu":"동구","lat":35.882372,"lng":128.752079},{"id":"3420000-S202100001","type":"civildefense","name":"대구혁신LH3단지아파트 지하주차장1층","address":"대구광역시 동구 과학로13길 30(각산동, 대구혁신엘에이치천년나무3단지)","sido":"대구광역시","sigungu":"동구","lat":35.886592,"lng":128.716804},{"id":"3420000-S201300001","type":"civildefense","name":"이시아폴리스더샵1차아파트 지하주차장1층","address":"대구광역시 동구 팔공로53길 10 (봉무동, 이시아폴리스더샵1차(전동지하))","sido":"대구광역시","sigungu":"동구","lat":35.925246,"lng":128.639601},{"id":"3420000-S201100019","type":"civildefense","name":"각산푸르지오1단지아파트 지하주차장1층","address":"대구광역시 동구 경안로 824-0 (각산동)","sido":"대구광역시","sigungu":"동구","lat":35.875488,"lng":128.716351},{"id":"3420000-S201600001","type":"civildefense","name":"대구혁신에듀포레아파트 지하주차장1층","address":"대구광역시 동구 과학로 45(각산동, 대구혁신에듀포레)","sido":"대구광역시","sigungu":"동구","lat":35.882872,"lng":128.71679},{"id":"3420000-S200300024","type":"civildefense","name":"동화해오름타운아파트 지하주차장1층","address":"대구광역시 동구 동호로 89-0 (신서동)","sido":"대구광역시","sigungu":"동구","lat":35.866745,"lng":128.726618},{"id":"3420000-S199900212","type":"civildefense","name":"방촌지하철역건물 지하1층","address":"대구광역시 동구 동촌로 지하 275 (방촌동, 방촌역)","sido":"대구광역시","sigungu":"동구","lat":35.879858,"lng":128.669894},{"id":"3420000-S201100015","type":"civildefense","name":"율하리버파크아파트 지하주차장1층","address":"대구광역시 동구 율하동로 19 (율하동, 율하휴먼시아11단지)","sido":"대구광역시","sigungu":"동구","lat":35.861201,"lng":128.70096},{"id":"3420000-S200000001","type":"civildefense","name":"영남네오빌아파트 지하주차장1층~2층","address":"대구광역시 동구 동촌로 190 (방촌동, 영남네오빌)","sido":"대구광역시","sigungu":"동구","lat":35.882982,"lng":128.661578},{"id":"3420000-S200800005","type":"civildefense","name":"에스디아이프라임아파트 지하주차장1층","address":"대구광역시 동구 아양로24길 13 (신암동, 에스디아이프라임)","sido":"대구광역시","sigungu":"동구","lat":35.884497,"lng":128.627743},{"id":"3420000-S200800006","type":"civildefense","name":"신천청아람아파트 지하주차장1층~2층","address":"대구광역시 동구 송라로14길 132 (신천동, 신천청아람)","sido":"대구광역시","sigungu":"동구","lat":35.873086,"lng":128.622003},{"id":"3430000-S199600003","type":"civildefense","name":"한전서대구지점 지하주차장 1층","address":"대구광역시 서구 달서로 85 (비산동, 한국전력서대구점)","sido":"대구광역시","sigungu":"서구","lat":35.869835,"lng":128.570632},{"id":"3430000-S202600002","type":"civildefense","name":"두류스타힐스 지하주차장 1~4층","address":"대구광역시 서구 서대구로 20 (내당동, 두류스타힐스)","sido":"대구광역시","sigungu":"서구","lat":35.860281,"lng":128.558369},{"id":"3430000-S201100023","type":"civildefense","name":"평리롯데캐슬 지하주차장 1층","address":"대구광역시 서구 국채보상로 316 (평리동, 평리롯데캐슬)","sido":"대구광역시","sigungu":"서구","lat":35.871872,"lng":128.565564},{"id":"3430000-S202400004","type":"civildefense","name":"e편한세상두류역 지하주차장 1~3층","address":"대구광역시 서구 달구벌대로361길 41 (내당동, e편한세상두류역)","sido":"대구광역시","sigungu":"서구","lat":35.863106,"lng":128.560807},{"id":"3430000-S202400005","type":"civildefense","name":"서대구KTX영무예다음 지하주차장 1,2층","address":"대구광역시 서구 당산로 446 (평리동, 서대구영무예다음)","sido":"대구광역시","sigungu":"서구","lat":35.876264,"lng":128.547212},{"id":"3430000-S198100086","type":"civildefense","name":"트레이더스 홀세일 클럽 비산점 지하 1~2층","address":"대구광역시 서구 팔달로 54 (비산동)","sido":"대구광역시","sigungu":"서구","lat":35.890377,"lng":128.555903},{"id":"3430000-S201100017","type":"civildefense","name":"웰니스1004 병원 지하주차장 1층","address":"대구광역시 서구 달구벌대로 1889 (내당동)","sido":"대구광역시","sigungu":"서구","lat":35.862081,"lng":128.570924},{"id":"3430000-S202400002","type":"civildefense","name":"서대구역 서한이다음더퍼스트 지하주차장 1,2층","address":"대구광역시 서구 국채보상로37길 38 (평리동, 서대구역서한이다음더퍼스트)","sido":"대구광역시","sigungu":"서구","lat":35.873272,"lng":128.551416},{"id":"3430000-S202400001","type":"civildefense","name":"M플라자 지하주차장 1~2층","address":"대구광역시 서구 달구벌대로 1691, M플라자 (내당동)","sido":"대구광역시","sigungu":"서구","lat":35.855719,"lng":128.550711},{"id":"3430000-S200600001","type":"civildefense","name":"내당역 대합실 지하1층","address":"대구광역시 서구 달구벌대로 지하 1827 (내당동)","sido":"대구광역시","sigungu":"서구","lat":35.860298,"lng":128.564506},{"id":"3430000-S200300113","type":"civildefense","name":"서구청 구민홀 지하1층","address":"대구광역시 서구 국채보상로 257 (평리동, 서구청)","sido":"대구광역시","sigungu":"서구","lat":35.871426,"lng":128.559233},{"id":"3430000-S201100028","type":"civildefense","name":"평리푸르지오 지하주차장 1~2층","address":"대구광역시 서구 국채보상로50길 20 (평리동, 평리 푸르지오)","sido":"대구광역시","sigungu":"서구","lat":35.869286,"lng":128.559132},{"id":"3430000-S201700005","type":"civildefense","name":"수정 아파트 지하 1층","address":"대구광역시 서구 고성로 22 (비산동, 수정아파트)","sido":"대구광역시","sigungu":"서구","lat":35.887208,"lng":128.57021},{"id":"3430000-S202400006","type":"civildefense","name":"서대구센트럴자이 지하주차장 1,2층","address":"대구광역시 서구 고성로 33 (원대동3가, 서대구센트럴자이)","sido":"대구광역시","sigungu":"서구","lat":35.885983,"lng":128.572626},{"id":"3430000-S200300144","type":"civildefense","name":"평리청구타운 지하주차장 1층","address":"대구광역시 서구 서대구로 77 (평리동, 평리청구타운)","sido":"대구광역시","sigungu":"서구","lat":35.864867,"lng":128.555718},{"id":"3430000-S201100016","type":"civildefense","name":"열린큰병원 지하주차장 1층","address":"대구광역시 서구 달구벌대로 1877 (내당동, 열린큰병원)","sido":"대구광역시","sigungu":"서구","lat":35.861734,"lng":128.569658},{"id":"3430000-S199800058","type":"civildefense","name":"황제맨션1 지하주차장 1층","address":"대구광역시 서구 통학로 46 (내당동, 황제맨션)","sido":"대구광역시","sigungu":"서구","lat":35.864345,"lng":128.564115},{"id":"3430000-S199800057","type":"civildefense","name":"홍실2차 아파트 지하주차장 1층","address":"대구광역시 서구 통학로 39 (내당동, 보성2차홍실타운)","sido":"대구광역시","sigungu":"서구","lat":35.863789,"lng":128.563991},{"id":"3430000-S202300002","type":"civildefense","name":"평리헤리티지 지하1층 주차장","address":"대구광역시 서구 국채보상로 303 (평리동)","sido":"대구광역시","sigungu":"서구","lat":35.872215,"lng":128.564174},{"id":"3430000-S201400002","type":"civildefense","name":"한마음정형외과 지하1층","address":"대구광역시 서구 달서로 129 (비산동)","sido":"대구광역시","sigungu":"서구","lat":35.873818,"lng":128.570947},{"id":"3430000-S201300002","type":"civildefense","name":"서구보건소 지하1층","address":"대구광역시 서구 국채보상로 257 (평리동, 서구청)","sido":"대구광역시","sigungu":"서구","lat":35.871426,"lng":128.559233},{"id":"3430000-S201100021","type":"civildefense","name":"한신휴플러스 지하1,2층주차장","address":"대구광역시 서구 달서로17길 17 (비산동, 한신휴플러스 아파트)","sido":"대구광역시","sigungu":"서구","lat":35.870724,"lng":128.569065},{"id":"3430000-S199500034","type":"civildefense","name":"대구의료원 본관 지하1층, 라파엘웰빙센터 지하1층","address":"대구광역시 서구 평리로 157 (중리동, 대구의료원)","sido":"대구광역시","sigungu":"서구","lat":35.859249,"lng":128.541522},{"id":"3430000-S201300006","type":"civildefense","name":"원대금류타운 아파트 지하주차장 1층","address":"대구광역시 서구 원대로13길 2 (원대동2가, 원대금류타운)","sido":"대구광역시","sigungu":"서구","lat":35.88289,"lng":128.580669},{"id":"3430000-S201300001","type":"civildefense","name":"서부도서관 지하1층","address":"대구광역시 서구 국채보상로49길 12 (평리동, 서부도서관)","sido":"대구광역시","sigungu":"서구","lat":35.872206,"lng":128.557546},{"id":"3430000-S202400007","type":"civildefense","name":"서대구역반도유보라센텀 지하주차장1,2층","address":"대구광역시 서구 문화로 230 (평리동, 서대구역반도유보라센텀)","sido":"대구광역시","sigungu":"서구","lat":35.875516,"lng":128.557671},{"id":"3430000-S201600003","type":"civildefense","name":"한국폴리텍대학 대구캠퍼스 산학협력관 지하1층","address":"대구광역시 서구 국채보상로43길 15-0 (평리동, 한국폴리텍대학대구캠퍼스)","sido":"대구광역시","sigungu":"서구","lat":35.87255,"lng":128.55384},{"id":"3430000-S202300001","type":"civildefense","name":"인동촌건강나눔센터 지하1층 주차장","address":"대구광역시 서구 북비산로75길 6, 인동촌건강나눔센터 (비산동)","sido":"대구광역시","sigungu":"서구","lat":35.879715,"lng":128.574245},{"id":"3430000-S202400003","type":"civildefense","name":"서대구역 화성파크드림 지하주차장 1,2층","address":"대구광역시 서구 서대구로29길 30 (평리동, 서대구역화성파크드림)","sido":"대구광역시","sigungu":"서구","lat":35.871153,"lng":128.54922},{"id":"3430000-S199600060","type":"civildefense","name":"서구청 지하 1층","address":"대구광역시 서구 국채보상로 257 (평리동, 서구청)","sido":"대구광역시","sigungu":"서구","lat":35.871426,"lng":128.559233},{"id":"3430000-S201700004","type":"civildefense","name":"양지아파트 지하 1층","address":"대구광역시 서구 달서천로61길 34 (비산동, 양지아파트)","sido":"대구광역시","sigungu":"서구","lat":35.887396,"lng":128.569562},{"id":"3430000-S201000001","type":"civildefense","name":"중리롯데캐슬 지하주차장 1~2층","address":"대구광역시 서구 국채보상로34길 12 (중리동, 중리롯데캐슬)","sido":"대구광역시","sigungu":"서구","lat":35.867237,"lng":128.549448},{"id":"3430000-S199800059","type":"civildefense","name":"황제맨션2 지하주차장 1층","address":"대구광역시 서구 통학로 46 (내당동, 황제맨션)","sido":"대구광역시","sigungu":"서구","lat":35.864345,"lng":128.564115},{"id":"3430000-S199900002","type":"civildefense","name":"서구제일종합사회복지관 지하1층","address":"대구광역시 서구 옥산로6길 9 (원대동3가)","sido":"대구광역시","sigungu":"서구","lat":35.885733,"lng":128.578865},{"id":"3430000-S202600001","type":"civildefense","name":"북비산초등학교 주차장 1층","address":"대구광역시 서구 통학로48길 7, 북비산초등학교 (비산동)","sido":"대구광역시","sigungu":"서구","lat":35.881545,"lng":128.564591},{"id":"3440000-S200400016","type":"civildefense","name":"그린빌라 지하 1층 주차장","address":"대구광역시 남구 큰골7길 40(대명동, 그린빌라)","sido":"대구광역시","sigungu":"남구","lat":35.834143,"lng":128.583306},{"id":"3440000-S202600001","type":"civildefense","name":"교대역 푸르지오 트레힐즈","address":"대구광역시 남구 이천로19길 16 (이천동, 교대역 푸르지오 트레힐즈)","sido":"대구광역시","sigungu":"남구","lat":35.850067,"lng":128.597541},{"id":"3440000-S199700005","type":"civildefense","name":"세광그린타운 지하1층","address":"대구광역시 남구 현충로26길 67, 지하1층 (대명동, 대명세광그린타운)","sido":"대구광역시","sigungu":"남구","lat":35.844242,"lng":128.583811},{"id":"3440000-S198200011","type":"civildefense","name":"대구대학교 간호학과 지하 1층","address":"대구광역시 남구 명덕로12길 55 (대명동, 대구대학교재활대학원)","sido":"대구광역시","sigungu":"남구","lat":35.855349,"lng":128.576418},{"id":"3440000-S198400013","type":"civildefense","name":"서동해피플러스 지하1층","address":"대구광역시 남구 현충로 127 (대명동, 서동해피플러스)","sido":"대구광역시","sigungu":"남구","lat":35.844213,"lng":128.579719},{"id":"3440000-S199700006","type":"civildefense","name":"지하철대명역 지하1층","address":"대구광역시 남구 대명로 지하 71 (대명동, 대명역)","sido":"대구광역시","sigungu":"남구","lat":35.839314,"lng":128.565378},{"id":"3440000-S198700007","type":"civildefense","name":"효성타운 전체 동의 지하1층","address":"대구광역시 남구 효성중앙길 37 (봉덕동, 효성타운)","sido":"대구광역시","sigungu":"남구","lat":35.836072,"lng":128.602188},{"id":"3440000-S201800002","type":"civildefense","name":"나나바루아 아파트 지하주차장 1층","address":"대구광역시 남구 대명복개로4길 104 (대명동)","sido":"대구광역시","sigungu":"남구","lat":35.839859,"lng":128.565435},{"id":"3440000-S201000018","type":"civildefense","name":"이천뜨란채3단지 지하주차장 1층","address":"대구광역시 남구 대봉로26길 38 (이천동, 이천뜨란채3단지)","sido":"대구광역시","sigungu":"남구","lat":35.850061,"lng":128.605664},{"id":"3440000-S200400017","type":"civildefense","name":"대덕문화전당 지하 1층","address":"대구광역시 남구 앞산순환로 478, 대덕문화전당 (대명동)","sido":"대구광역시","sigungu":"남구","lat":35.831309,"lng":128.577016},{"id":"3440000-S198000016","type":"civildefense","name":"영남이공대학 천마체육관 지하 1층","address":"대구광역시 남구 현충로 170 (대명동, 영남대학교(병원),영남이공대학교)","sido":"대구광역시","sigungu":"남구","lat":35.847747,"lng":128.580364},{"id":"3440000-S199700009","type":"civildefense","name":"지하철 서부정류장역 지하1층","address":"대구광역시 남구 월배로 지하 501 (대명동)","sido":"대구광역시","sigungu":"남구","lat":35.837075,"lng":128.557035},{"id":"3440000-S202000002","type":"civildefense","name":"교대역 동서프라임36.5 아파트 지하주차장 지하1층","address":"대구광역시 남구 이천로19길 81 (대명동, 교대역동서프라임36.5)","sido":"대구광역시","sigungu":"남구","lat":35.851094,"lng":128.595058},{"id":"3440000-S201000007","type":"civildefense","name":"우체국보험 대구회관 지하주차장 1~5층","address":"대구광역시 남구 중앙대로 200 (대명동, 남대구우체국)","sido":"대구광역시","sigungu":"남구","lat":35.850657,"lng":128.590858},{"id":"3440000-S201000020","type":"civildefense","name":"가톨릭대학병원 라파엘관 동문 지하1층","address":"대구광역시 남구 두류공원로17길 33, 대구가톨릭의과대학병원 (대명동)","sido":"대구광역시","sigungu":"남구","lat":35.843965,"lng":128.568542},{"id":"3440000-S199200002","type":"civildefense","name":"남부경찰서 지하1층","address":"대구광역시 남구 대명로 249, 대구남부경찰서 지하1층 (대명동)","sido":"대구광역시","sigungu":"남구","lat":35.842309,"lng":128.583817},{"id":"3440000-S201000004","type":"civildefense","name":"대구광역시시설관리공단 지하주차장 1층","address":"대구광역시 남구 대명로 29 (대명동, 대구광역시 시설관리공단)","sido":"대구광역시","sigungu":"남구","lat":35.838946,"lng":128.561065},{"id":"3440000-S201500001","type":"civildefense","name":"앞산클래식명가 지하1층","address":"대구광역시 남구 현충로 107 (대명동, 앞산클래식명가)","sido":"대구광역시","sigungu":"남구","lat":35.842386,"lng":128.579451},{"id":"3440000-S198900017","type":"civildefense","name":"동아대덕아파트 지하1층","address":"대구광역시 남구 현충서길 29 (대명동, 동아대덕아파트)","sido":"대구광역시","sigungu":"남구","lat":35.845462,"lng":128.578032},{"id":"3440000-S199100007","type":"civildefense","name":"대덕2차맨션 지하1층 주차장","address":"대구광역시 남구 앞산순환로 655 (봉덕동, 대덕2차맨션)","sido":"대구광역시","sigungu":"남구","lat":35.83358,"lng":128.596414},{"id":"3440000-S198300001","type":"civildefense","name":"남구청 지하1층","address":"대구광역시 남구 이천로 51 (봉덕동, 남구청,남구의회,봉덕1동주민센터)","sido":"대구광역시","sigungu":"남구","lat":35.845748,"lng":128.5982},{"id":"3440000-S200200012","type":"civildefense","name":"교대역정거장 지하1층~지하3층","address":"대구광역시 남구 중앙대로 지하 194 (대명동, 교대역)","sido":"대구광역시","sigungu":"남구","lat":35.850129,"lng":128.590665},{"id":"3440000-S201000005","type":"civildefense","name":"앞산힐스테이트 지하주차장 1층","address":"대구광역시 남구 대덕로 166 (봉덕동, 앞산힐스테이트)","sido":"대구광역시","sigungu":"남구","lat":35.840203,"lng":128.601112},{"id":"3440000-S199500001","type":"civildefense","name":"태성맨션 지하1층 주차장","address":"대구광역시 남구 효서2길 7 (봉덕동, 태성맨션)","sido":"대구광역시","sigungu":"남구","lat":35.838648,"lng":128.596075},{"id":"3440000-S201700001","type":"civildefense","name":"영남이공대학교 천마스퀘어 지하 1층","address":"대구광역시 남구 현충로 170 (대명동, 영남대학교(병원),영남이공대학교)","sido":"대구광역시","sigungu":"남구","lat":35.847747,"lng":128.580364},{"id":"3440000-S199800003","type":"civildefense","name":"KT달서지사 남대구지점 지하 1층 주차장","address":"대구광역시 남구 안지랑로 82 (대명동, KT남대구지사)","sido":"대구광역시","sigungu":"남구","lat":35.838838,"lng":128.571542},{"id":"3440000-S199800009","type":"civildefense","name":"보성청록타운주차장 동편 지하1층","address":"대구광역시 남구 큰골길 198(대명동)","sido":"대구광역시","sigungu":"남구","lat":35.83467,"lng":128.585977},{"id":"3440000-S202000001","type":"civildefense","name":"봉덕한라하우젠트아파트 지하1층","address":"대구광역시 남구 봉덕로21길 53-16(봉덕동, 봉덕한라하우젠트퍼스트아파트)","sido":"대구광역시","sigungu":"남구","lat":35.846927,"lng":128.599678},{"id":"3440000-S201000021","type":"civildefense","name":"가톨릭대학병원 장례식장 지하1층","address":"대구광역시 남구 두류공원로17길 33, 대구가톨릭의과대학병원 (대명동)","sido":"대구광역시","sigungu":"남구","lat":35.843965,"lng":128.568542},{"id":"3440000-S199700007","type":"civildefense","name":"지하철 안지랑역 지하 1층","address":"대구광역시 남구 대명로 지하141, 안지랑역 (대명동)","sido":"대구광역시","sigungu":"남구","lat":35.839267,"lng":128.573176},{"id":"3440000-S199900001","type":"civildefense","name":"이천주공1단지 지하주차장 2층","address":"대구광역시 남구 명덕로68길 77 (이천동, 대구이천주공1아파트)","sido":"대구광역시","sigungu":"남구","lat":35.852162,"lng":128.605755},{"id":"3440000-S199300004","type":"civildefense","name":"주식회사KT 지하1층","address":"대구광역시 남구 봉덕로 61 (봉덕동)","sido":"대구광역시","sigungu":"남구","lat":35.845115,"lng":128.597426},{"id":"3440000-S201000017","type":"civildefense","name":"월드메르디앙 지하주차장 2층","address":"대구광역시 남구 이천로19길 68 (이천동, 교대역월드메르디앙)","sido":"대구광역시","sigungu":"남구","lat":35.850525,"lng":128.595281},{"id":"3440000-S198200014","type":"civildefense","name":"대구대학교 재활의원 지하 1층","address":"대구광역시 남구 명덕로8길 70, 대구대학교 재활의원 (대명동)","sido":"대구광역시","sigungu":"남구","lat":35.856361,"lng":128.574943},{"id":"3440000-S200300001","type":"civildefense","name":"이천주공2단지 지하주차장 1층","address":"대구광역시 남구 희망로 57 (이천동, 이천주공2단지)","sido":"대구광역시","sigungu":"남구","lat":35.84767,"lng":128.604774},{"id":"3440000-S198200008","type":"civildefense","name":"대구대학교 대강당 지하 1층","address":"대구광역시 남구 성당로50길 33 (대명동, 대구대학교)","sido":"대구광역시","sigungu":"남구","lat":35.855155,"lng":128.575223},{"id":"3440000-S200400013","type":"civildefense","name":"대구서남노회회관 지하1층","address":"대구광역시 남구 앞산순환로 329 (대명동)","sido":"대구광역시","sigungu":"남구","lat":35.829556,"lng":128.562993},{"id":"3440000-S199000009","type":"civildefense","name":"대덕1차맨션 지하1층 주차장","address":"대구광역시 남구 앞산순환로 657(봉덕동, 보성대덕아파트)","sido":"대구광역시","sigungu":"남구","lat":35.833707,"lng":128.596666},{"id":"3440000-S201000003","type":"civildefense","name":"대구교육대학교 학생생활관 지하주차장 1층","address":"대구광역시 남구 도촌길 37 (대명동, 대구교육대학교학생생활관)","sido":"대구광역시","sigungu":"남구","lat":35.840769,"lng":128.570909},{"id":"3440000-S199400004","type":"civildefense","name":"강변아파트 107동 지하주차장 1층","address":"대구광역시 남구 명덕로68길 19 (이천동, 강변타운)","sido":"대구광역시","sigungu":"남구","lat":35.854006,"lng":128.606146},{"id":"3440000-S199800008","type":"civildefense","name":"보성청록타운주차장 서편 지하1층","address":"대구광역시 남구 큰골길 198(대명동)","sido":"대구광역시","sigungu":"남구","lat":35.83467,"lng":128.585977},{"id":"3440000-S201000016","type":"civildefense","name":"강변코오롱하늘채 아파트 지하1층","address":"대구광역시 남구 봉덕로 134 (봉덕동, 강변코오롱하늘채)","sido":"대구광역시","sigungu":"남구","lat":35.844227,"lng":128.605154},{"id":"3440000-S202200001","type":"civildefense","name":"앞산태왕아너스 지하주차장 B2~B3층","address":"대구광역시 남구 효서길 53(봉덕동, 앞산태왕아너스)","sido":"대구광역시","sigungu":"남구","lat":35.837905,"lng":128.595989},{"id":"3440000-S198900032","type":"civildefense","name":"대구고등학교 지하1층","address":"대구광역시 남구 중앙대로 171, 대구고등학교 지하1층 (대명동)","sido":"대구광역시","sigungu":"남구","lat":35.848334,"lng":128.590221},{"id":"3440000-S198200013","type":"civildefense","name":"대구대학교 중앙도서관 지하 1층","address":"대구광역시 남구 성당로50길 33 (대명동, 대구대학교)","sido":"대구광역시","sigungu":"남구","lat":35.855155,"lng":128.575223},{"id":"3440000-S198000018","type":"civildefense","name":"가톨릭대학병원 스텔라관 지하1층","address":"대구광역시 남구 두류공원로17길 33, 대구가톨릭의과대학병원 (대명동)","sido":"대구광역시","sigungu":"남구","lat":35.843965,"lng":128.568542},{"id":"3440000-S202300001","type":"civildefense","name":"대명역센트럴엘리프 지하1-2층","address":"대구광역시 남구 대명로14길 60 (대명동, 대명역센트럴엘리프)","sido":"대구광역시","sigungu":"남구","lat":35.836395,"lng":128.564484},{"id":"3440000-S198000019","type":"civildefense","name":"가톨릭대학병원 라파엘관 북문 지하1층","address":"대구광역시 남구 두류공원로17길 33, 대구가톨릭의과대학병원 (대명동)","sido":"대구광역시","sigungu":"남구","lat":35.843965,"lng":128.568542},{"id":"3440000-S199500003","type":"civildefense","name":"굿모닝병원 지하1층","address":"대구광역시 남구 성당로 224 (대명동, 굿모닝병원)","sido":"대구광역시","sigungu":"남구","lat":35.852909,"lng":128.573996},{"id":"3440000-S199700004","type":"civildefense","name":"지하철 영대병원역 지하1~2층","address":"대구광역시 남구 대명로 지하292, 영대병원역 지하1~2층 (대명동)","sido":"대구광역시","sigungu":"남구","lat":35.843937,"lng":128.587675},{"id":"3440000-S199700008","type":"civildefense","name":"지하철 현충로역 지하 1층","address":"대구광역시 남구 대명로 지하222, 현충로역 (대명동)","sido":"대구광역시","sigungu":"남구","lat":35.841176,"lng":128.581924},{"id":"3440000-S199400003","type":"civildefense","name":"강변아파트 104동 지하주차장 1층","address":"대구광역시 남구 명덕로68길 19 (이천동, 강변타운)","sido":"대구광역시","sigungu":"남구","lat":35.854006,"lng":128.606146},{"id":"3440000-S200600002","type":"civildefense","name":"희망교대성유니드 지하주차장 1층","address":"대구광역시 남구 희망로5길 12 (이천동, 대성유니드아파트)","sido":"대구광역시","sigungu":"남구","lat":35.84846,"lng":128.600807},{"id":"3440000-S197800025","type":"civildefense","name":"KT&G대구본부 지하1층","address":"대구광역시 남구 대명로 124 (대명동)","sido":"대구광역시","sigungu":"남구","lat":35.83863,"lng":128.571195},{"id":"3440000-S201000019","type":"civildefense","name":"이천뜨란채4단지 지하주차장 1층","address":"대구광역시 남구 대봉로26길 37 (이천동, 이천뜨란채4단지)","sido":"대구광역시","sigungu":"남구","lat":35.850414,"lng":128.605825},{"id":"3450000-S199800014","type":"civildefense","name":"남영타운 지하주차장(지하1~2층)","address":"대구광역시 북구 침산남로9길 167 (침산동, 침산남영타운)","sido":"대구광역시","sigungu":"북구","lat":35.899617,"lng":128.587184},{"id":"3450000-S201100009","type":"civildefense","name":"산격2차 청구맨션 전체동의 지하주차장 1,2층","address":"대구광역시 북구 대구체육관로4길 2 (산격동, 산격2차청구맨션)","sido":"대구광역시","sigungu":"북구","lat":35.891092,"lng":128.602411},{"id":"3450000-S201700004","type":"civildefense","name":"협성휴포레강북 지하주차장 1층~2층","address":"대구광역시 북구 태암남로 60 (태전동, 협성휴포레강북아파트)","sido":"대구광역시","sigungu":"북구","lat":35.924712,"lng":128.553726},{"id":"3450000-S199800018","type":"civildefense","name":"복현서한1차아파트 전체동 지하주차장 1~2층","address":"대구광역시 북구 검단로 50 (복현동, 복현서한타운)","sido":"대구광역시","sigungu":"북구","lat":35.902054,"lng":128.616318},{"id":"3450000-S201600002","type":"civildefense","name":"서변청아람 지하주차장 1층","address":"대구광역시 북구 호국로57길 20 (서변동, 서변청아람)","sido":"대구광역시","sigungu":"북구","lat":35.927573,"lng":128.596516},{"id":"3450000-S200300125","type":"civildefense","name":"신화아파트 지하주차장 1층","address":"대구광역시 북구 경대로5길 25 (대현동, 대현신화맨션)","sido":"대구광역시","sigungu":"북구","lat":35.88463,"lng":128.610773},{"id":"3450000-S201600009","type":"civildefense","name":"침산코오롱 하늘채2단지 지하주차장 1층","address":"대구광역시 북구 중앙대로 591(침산동, 침산동코오롱하늘채아파트)","sido":"대구광역시","sigungu":"북구","lat":35.886081,"lng":128.595013},{"id":"3450000-S202300002","type":"civildefense","name":"복현푸르지오 전체동 지하주차장 1~2층","address":"대구광역시 북구 동북로 345 (복현동, 복현푸르지오)","sido":"대구광역시","sigungu":"북구","lat":35.891956,"lng":128.626517},{"id":"3450000-S200400035","type":"civildefense","name":"연합통신 지하주차장 1~2층","address":"대구광역시 북구 원대로 128 (침산동)","sido":"대구광역시","sigungu":"북구","lat":35.888401,"lng":128.584287},{"id":"3450000-S201400001","type":"civildefense","name":"칠곡3차보성타운 101동,103동 지하주차장 1층","address":"대구광역시 북구 칠곡중앙대로126길 7-12, 102동 (읍내동, 칠곡3차보성타운)","sido":"대구광역시","sigungu":"북구","lat":35.9512,"lng":128.554466},{"id":"3450000-S201100002","type":"civildefense","name":"노원동화타운 지하주차장 1~2층","address":"대구광역시 북구 오봉로 39 (노원동2가, 노원동화타운)","sido":"대구광역시","sigungu":"북구","lat":35.891394,"lng":128.576749},{"id":"3450000-S199700006","type":"civildefense","name":"복현보성타운 전체동 지하주차장 1층","address":"대구광역시 북구 검단로 64 (복현동, 복현보성타운)","sido":"대구광역시","sigungu":"북구","lat":35.903238,"lng":128.616733},{"id":"3450000-S200000008","type":"civildefense","name":"두산위브2001 지하주차장 1층","address":"대구광역시 북구 매천로2길 19 (팔달동, 두산위브2001)","sido":"대구광역시","sigungu":"북구","lat":35.898468,"lng":128.544076},{"id":"3450000-S200300110","type":"civildefense","name":"공작한양아파트 104, 106동 지하주차장 1층","address":"대구광역시 북구 구암로21길 38, 104동 (읍내동, 칠곡1차(공작)한양아파트)","sido":"대구광역시","sigungu":"북구","lat":35.935628,"lng":128.553101},{"id":"3450000-S201600006","type":"civildefense","name":"그린빌3단지아파트 지하1층~2층 주차장","address":"대구광역시 북구 구암서로 41(구암동, 그린빌3차)","sido":"대구광역시","sigungu":"북구","lat":35.940088,"lng":128.565774},{"id":"3450000-S200300169","type":"civildefense","name":"지하철1호선  칠성시장역 지하1~3층","address":"대구광역시 북구 칠성남로 지하 222 (칠성동1가)","sido":"대구광역시","sigungu":"북구","lat":35.876213,"lng":128.60449},{"id":"3450000-S199800001","type":"civildefense","name":"기아자동차 지하 1층, 세미나실","address":"대구광역시 북구 팔달로 53 (노원동3가)","sido":"대구광역시","sigungu":"북구","lat":35.89079,"lng":128.556082},{"id":"3450000-S202100006","type":"civildefense","name":"복현자이아파트 전체동 지하주차장 1층","address":"대구광역시 북구 공항로 16 (복현동)","sido":"대구광역시","sigungu":"북구","lat":35.897546,"lng":128.616948},{"id":"3450000-S200300144","type":"civildefense","name":"대백1차아파트 전동 지하주차장 1층","address":"대구광역시 북구 관음로 24 (태전동, 칠곡대백맨션)","sido":"대구광역시","sigungu":"북구","lat":35.932547,"lng":128.540226},{"id":"3450000-S200300153","type":"civildefense","name":"칠곡미래타운 지하1층 주차장","address":"대구광역시 북구 팔거천동로 52(구암동, 칠곡미래타운)","sido":"대구광역시","sigungu":"북구","lat":35.929179,"lng":128.553507},{"id":"3450000-S199500129","type":"civildefense","name":"한양수정아파트 212동 지하주차장 1층","address":"대구광역시 북구 구암로 17 (관음동, 칠곡2차(수정)한양아파트)","sido":"대구광역시","sigungu":"북구","lat":35.934017,"lng":128.542842},{"id":"3450000-S200500002","type":"civildefense","name":"화성리버파크2단지아파트 지하주차장 1층","address":"대구광역시 북구 서변로 50 (서변동, 화성리버파크2단지)","sido":"대구광역시","sigungu":"북구","lat":35.920354,"lng":128.596736},{"id":"3450000-S199500012","type":"civildefense","name":"산격주공아파트 102동 지하 1층","address":"대구광역시 북구 연암로 183, 지하1층 (산격동, 산격주공아파트)","sido":"대구광역시","sigungu":"북구","lat":35.900941,"lng":128.596164},{"id":"3450000-S201700003","type":"civildefense","name":"오페라코오롱하늘채 지하주차장1~2층","address":"대구광역시 북구 중앙대로 540 (칠성동2가, 오페라코오롱하늘채)","sido":"대구광역시","sigungu":"북구","lat":35.880156,"lng":128.596781},{"id":"3450000-S200500005","type":"civildefense","name":"대구오페라하우스 지하주차장1-2층","address":"대구광역시 북구 호암로 15 (칠성동2가, 대구오페라하우스)","sido":"대구광역시","sigungu":"북구","lat":35.883163,"lng":128.592332},{"id":"3450000-S200300148","type":"civildefense","name":"관음타운 전동 지하주차장 1~3층","address":"대구광역시 북구 영송로 63 (태전동, 칠곡관음타운)","sido":"대구광역시","sigungu":"북구","lat":35.93101,"lng":128.544377},{"id":"3450000-S201100010","type":"civildefense","name":"산격1차청구맨션 전체동의 지하주차장 1층","address":"대구광역시 북구 대구체육관로 12 (산격동, 산격청구맨션)","sido":"대구광역시","sigungu":"북구","lat":35.890631,"lng":128.60143},{"id":"3450000-S201000005","type":"civildefense","name":"대구보건대 지하주차장 1~2층","address":"대구광역시 북구 영송로 15 (태전동, 대구보건대학교)","sido":"대구광역시","sigungu":"북구","lat":35.926819,"lng":128.544144},{"id":"3450000-S200000003","type":"civildefense","name":"건영화물 사무실 지하1층","address":"대구광역시 북구 노원로 125 (노원동3가)","sido":"대구광역시","sigungu":"북구","lat":35.896878,"lng":128.574359},{"id":"3450000-S200300138","type":"civildefense","name":"우방1차아파트 전동 지하주차장 1층","address":"대구광역시 북구 매천로 220 (태전동, 태전우방타운)","sido":"대구광역시","sigungu":"북구","lat":35.916654,"lng":128.542259},{"id":"3450000-S200300162","type":"civildefense","name":"에덴아파트 전체동 지하주차장 1층","address":"대구광역시 북구 구암로22길 14 (태전동, 칠곡에덴타운)","sido":"대구광역시","sigungu":"북구","lat":35.931145,"lng":128.551571},{"id":"3450000-S200500010","type":"civildefense","name":"대구종합유통단지산업용재관 전동 지하주차장 1층","address":"대구광역시 북구 유통단지로 16 (산격동, 유통단지산업용재관)","sido":"대구광역시","sigungu":"북구","lat":35.904668,"lng":128.605002},{"id":"3450000-S199500104","type":"civildefense","name":"민들레아파트 지하주차장 1층","address":"대구광역시 북구 검단로 255 (검단동, 민들레아파트)","sido":"대구광역시","sigungu":"북구","lat":35.916102,"lng":128.629858},{"id":"3450000-S201900001","type":"civildefense","name":"효성해링턴 플레이스 102동 지하주차장 1층","address":"대구광역시 북구 관음로 295 (읍내동, 학정역효성해링턴플레이스)","sido":"대구광역시","sigungu":"북구","lat":35.954065,"lng":128.551803},{"id":"3450000-S202300001","type":"civildefense","name":"힐스테이트데시앙 도남1단지 지하주차장 1층","address":"대구광역시 북구 도남길 76(국우동, 힐스테이트 데시앙 도남1단지)","sido":"대구광역시","sigungu":"북구","lat":35.954519,"lng":128.582297},{"id":"3450000-S200500011","type":"civildefense","name":"네오시티프라자 지하주차장 1층~5층","address":"대구광역시 북구 칠곡중앙대로 412 (태전동, 네오시티프라자)","sido":"대구광역시","sigungu":"북구","lat":35.932506,"lng":128.548804},{"id":"3450000-S201500001","type":"civildefense","name":"화성그랜드파크 지하1층~2층주차장","address":"대구광역시 북구 구암로65길 9(구암동, 화성그랜드파크)","sido":"대구광역시","sigungu":"북구","lat":35.940773,"lng":128.568484},{"id":"3450000-S198900001","type":"civildefense","name":"북구청 민방위교육장 지하 1층","address":"대구광역시 북구 옥산로 65 (침산동, 북구청)","sido":"대구광역시","sigungu":"북구","lat":35.885106,"lng":128.582781},{"id":"3450000-S201600007","type":"civildefense","name":"동화훼밀리타운 지하주차장 1층","address":"대구광역시 북구 칠곡중앙대로95길 11 (관음동, 동화훼밀리타운)","sido":"대구광역시","sigungu":"북구","lat":35.938584,"lng":128.548085},{"id":"3450000-S200300165","type":"civildefense","name":"태전동삼성아파트 전체동 지하주차장 1층","address":"대구광역시 북구 칠곡중앙대로52길 20 (태전동, 삼성아파트)","sido":"대구광역시","sigungu":"북구","lat":35.920239,"lng":128.548363},{"id":"3450000-S200900001","type":"civildefense","name":"칠곡1차한라하우젠트 지하주차장 1층","address":"대구광역시 북구 학남로 10(학정동, 칠곡1차 한라하우젠트)","sido":"대구광역시","sigungu":"북구","lat":35.948521,"lng":128.565786},{"id":"3450000-S201600005","type":"civildefense","name":"금호천년나무1단지 지하주차장 1층","address":"대구광역시 북구 한강로 55 (사수동, 대구금호엘에이치천년나무1단지)","sido":"대구광역시","sigungu":"북구","lat":35.897419,"lng":128.515659},{"id":"3450000-S200500001","type":"civildefense","name":"유니버시아드선수촌1단지 지하주차장 1층","address":"대구광역시 북구 동변로 50 (동변동, 유니버시아드선수촌)","sido":"대구광역시","sigungu":"북구","lat":35.917717,"lng":128.603877},{"id":"3450000-S201100007","type":"civildefense","name":"산격대우아파트 전동 지하주차장 1층, 2층","address":"대구광역시 북구 동북로 163 (산격동, 산격대우아파트)","sido":"대구광역시","sigungu":"북구","lat":35.899669,"lng":128.610647},{"id":"3450000-S199500016","type":"civildefense","name":"산격주공아파트 106동 지하 1층","address":"대구광역시 북구 연암로 183, 지하1층 (산격동, 산격주공아파트)","sido":"대구광역시","sigungu":"북구","lat":35.900941,"lng":128.596164},{"id":"3450000-S200300150","type":"civildefense","name":"태전대백2차아파트 지하주차장 1층","address":"대구광역시 북구 관음로 18 (태전동, 태전대백맨션)","sido":"대구광역시","sigungu":"북구","lat":35.932053,"lng":128.54006},{"id":"3450000-S200300167","type":"civildefense","name":"태전3차우방아파트 지하주차장 1층~2층","address":"대구광역시 북구 학정로 126 (태전동, 태전3차우방타운)","sido":"대구광역시","sigungu":"북구","lat":35.919188,"lng":128.551534},{"id":"3450000-S201200002","type":"civildefense","name":"대현뜨란채아파트 101동 지하1층","address":"대구광역시 북구 대현남로 28 (대현동, 대현뜨란채)","sido":"대구광역시","sigungu":"북구","lat":35.880899,"lng":128.606408},{"id":"3450000-S201700005","type":"civildefense","name":"복현3차서한이다음 전체동 지하주차장 1층","address":"대구광역시 북구 복현로 130 (복현동, 복현3차서한이다음)","sido":"대구광역시","sigungu":"북구","lat":35.90144,"lng":128.618454},{"id":"3450000-S202100001","type":"civildefense","name":"대구연경 LH천년나무1단지 지하주차장 1층","address":"대구광역시 북구 동화천로 280 (연경동, 대구연경엘에이치천년나무1단지)","sido":"대구광역시","sigungu":"북구","lat":35.941072,"lng":128.622339},{"id":"3450000-S199800017","type":"civildefense","name":"산격동화타운 지하주차장 1층","address":"대구광역시 북구 연암로31길 19 (산격동, 산격동화타운)","sido":"대구광역시","sigungu":"북구","lat":35.898284,"lng":128.594064},{"id":"3450000-S199500015","type":"civildefense","name":"산격주공아파트 105동 지하 1층","address":"대구광역시 북구 연암로 183, 지하1층 (산격동, 산격주공아파트)","sido":"대구광역시","sigungu":"북구","lat":35.900941,"lng":128.596164},{"id":"3450000-S200300135","type":"civildefense","name":"협화아파트 전동 지하주차장 1층","address":"대구광역시 북구 칠곡중앙대로51길 6 (태전동, 협화맨션)","sido":"대구광역시","sigungu":"북구","lat":35.91915,"lng":128.546495},{"id":"3450000-S200400029","type":"civildefense","name":"선학맨션 지하주차장 1층","address":"대구광역시 북구 성북로 50 (침산동, 선학맨션)","sido":"대구광역시","sigungu":"북구","lat":35.8913,"lng":128.588402},{"id":"3450000-S200500003","type":"civildefense","name":"동서리치모아아파트 지하주차장 1층","address":"대구광역시 북구 서변로 88 (서변동, 동서리치모아)","sido":"대구광역시","sigungu":"북구","lat":35.923611,"lng":128.596872},{"id":"3450000-S201100008","type":"civildefense","name":"양우내안애아파트 전동 지하주차장 1층, 2층","address":"대구광역시 북구 동북로 131 (산격동, 양우내안애아파트)","sido":"대구광역시","sigungu":"북구","lat":35.901386,"lng":128.607973},{"id":"3450000-S201700001","type":"civildefense","name":"칠곡시장 지하주차장 1층","address":"대구광역시 북구 칠곡중앙대로 526 (읍내동)","sido":"대구광역시","sigungu":"북구","lat":35.942536,"lng":128.550918},{"id":"3450000-S200500016","type":"civildefense","name":"홈플러스 칠곡점 지하주차장 1층","address":"대구광역시 북구 동암로12길 8 (동천동, 칠곡홈플러스)","sido":"대구광역시","sigungu":"북구","lat":35.944587,"lng":128.556726},{"id":"3450000-S201200003","type":"civildefense","name":"대현한신휴플러스아파트 전동 지하1층","address":"대구광역시 북구 대현남로 25(대현동, 대현한신휴플러스)","sido":"대구광역시","sigungu":"북구","lat":35.881124,"lng":128.60615},{"id":"3450000-S199100009","type":"civildefense","name":"세림빌딩 지하주차장 1층","address":"대구광역시 북구 동북로 279 (복현동)","sido":"대구광역시","sigungu":"북구","lat":35.893308,"lng":128.620779},{"id":"3450000-S200500012","type":"civildefense","name":"동아아울렛강북점 본관 지하주차장 1~4층","address":"대구광역시 북구 칠곡중앙대로 416 (읍내동, 동아아울렛 강북점)","sido":"대구광역시","sigungu":"북구","lat":35.932935,"lng":128.548791},{"id":"3450000-S200300058","type":"civildefense","name":"경북대 농과대1호관 지하 1층","address":"대구광역시 북구 대학로 80 (산격동, 경북대학교)","sido":"대구광역시","sigungu":"북구","lat":35.892367,"lng":128.609379},{"id":"3450000-S200400018","type":"civildefense","name":"침산한라스카이빌 지하주차장 1층","address":"대구광역시 북구 침산로22길 5(침산동, 침산한라스카이빌)","sido":"대구광역시","sigungu":"북구","lat":35.885597,"lng":128.59161},{"id":"3450000-S200300152","type":"civildefense","name":"청구타운 지하1층~2층 주차장","address":"대구광역시 북구 학정로 271(구암동, 칠곡청구타운)","sido":"대구광역시","sigungu":"북구","lat":35.929365,"lng":128.559688},{"id":"3450000-S201000002","type":"civildefense","name":"강북화성파크드림 전체동 지하주차장 1층","address":"대구광역시 북구 칠곡중앙대로 312 (태전동, 강북 화성파크드림)","sido":"대구광역시","sigungu":"북구","lat":35.923543,"lng":128.547194},{"id":"3450000-S200300102","type":"civildefense","name":"삼진목화아파트 지하주차장 1층","address":"대구광역시 북구 대천로9길 15 (읍내동, 삼진목화아파트)","sido":"대구광역시","sigungu":"북구","lat":35.938664,"lng":128.554727},{"id":"3450000-S201000004","type":"civildefense","name":"대구보건대아트센터 지하주차장 1~2층","address":"대구광역시 북구 영송로 15 (태전동, 대구보건대학교)","sido":"대구광역시","sigungu":"북구","lat":35.926819,"lng":128.544144},{"id":"3450000-S200300113","type":"civildefense","name":"산호한양아파트 303, 307동 지하주차장 1층","address":"대구광역시 북구 대천로7길 40, 302동 (읍내동, 칠곡산호한양아파트)","sido":"대구광역시","sigungu":"북구","lat":35.941,"lng":128.55439},{"id":"3450000-S199500125","type":"civildefense","name":"칠곡서한맨션 지하주차장 1층","address":"대구광역시 북구 관음중앙로 6 (관음동, 칠곡서한맨션)","sido":"대구광역시","sigungu":"북구","lat":35.934421,"lng":128.5445},{"id":"3450000-S200300156","type":"civildefense","name":"동서2차아파트 지하1층 주차장","address":"대구광역시 북구 구암로32길 22 (구암동, 칠곡2차동서타운)","sido":"대구광역시","sigungu":"북구","lat":35.929752,"lng":128.557294},{"id":"3450000-S200300163","type":"civildefense","name":"두성파크 전체동 지하주차장 1층","address":"대구광역시 북구 학정로13길 16 (태전동, 두성2차파크아파트)","sido":"대구광역시","sigungu":"북구","lat":35.915106,"lng":128.54948},{"id":"3450000-S199400013","type":"civildefense","name":"영진전문대 구내식당 지하1층","address":"대구광역시 북구 복현로 35 (복현동, 영진전문대학)","sido":"대구광역시","sigungu":"북구","lat":35.895238,"lng":128.623612},{"id":"3450000-S199500157","type":"civildefense","name":"삼주빌딩 지하1층","address":"대구광역시 북구 대현로 102 (대현동)","sido":"대구광역시","sigungu":"북구","lat":35.88209,"lng":128.61002},{"id":"3450000-S200900004","type":"civildefense","name":"칠곡현대아파트 지하주차장 1층","address":"대구광역시 북구 구리로 254(국우동, 칠곡현대아파트)","sido":"대구광역시","sigungu":"북구","lat":35.948038,"lng":128.579843},{"id":"3450000-S201200004","type":"civildefense","name":"칠곡e편한세상 지하주차장 1~2층","address":"대구광역시 북구 칠곡중앙대로 598 (읍내동, 칠곡e-편한세상)","sido":"대구광역시","sigungu":"북구","lat":35.947857,"lng":128.553741},{"id":"3450000-S200400037","type":"civildefense","name":"청구2차아파트 지하주차장 1층","address":"대구광역시 북구 침산남로19길 8 (침산동, 침산2차청구타운)","sido":"대구광역시","sigungu":"북구","lat":35.889917,"lng":128.586906},{"id":"3450000-S199500128","type":"civildefense","name":"한양수정아파트 210동 지하주차장 1층","address":"대구광역시 북구 구암로 17 (관음동, 칠곡2차(수정)한양아파트)","sido":"대구광역시","sigungu":"북구","lat":35.934017,"lng":128.542842},{"id":"3450000-S202100005","type":"civildefense","name":"복현건영아파트 전체동 지하주차장 1층","address":"대구광역시 북구 검단로 28 (복현동, 복현건영아파트)","sido":"대구광역시","sigungu":"북구","lat":35.900138,"lng":128.615663},{"id":"3450000-S200500007","type":"civildefense","name":"스펙트럼시티 지하주차장2~5층","address":"대구광역시 북구 침산로 93 (칠성동2가, 스펙트럼시티)","sido":"대구광역시","sigungu":"북구","lat":35.884888,"lng":128.590051},{"id":"3450000-S200300139","type":"civildefense","name":"두성1차아파트 지하주차장 1층","address":"대구광역시 북구 태전로7길 10-17 (태전동, 1차 두성타운 아파트)","sido":"대구광역시","sigungu":"북구","lat":35.923839,"lng":128.543129},{"id":"3450000-S200300054","type":"civildefense","name":"지하철1호선 대구역 지하2~3층","address":"대구광역시 북구 칠성남로30길 지하 24 (칠성동2가)","sido":"대구광역시","sigungu":"북구","lat":35.876398,"lng":128.597474},{"id":"3450000-S199800021","type":"civildefense","name":"삼우그린타운 지하주차장 1,2층","address":"대구광역시 북구 매천로8길 35 (매천동, 삼우그린타운)","sido":"대구광역시","sigungu":"북구","lat":35.899964,"lng":128.546198},{"id":"3450000-S199400004","type":"civildefense","name":"복현현대맨션 지하주차장 1층","address":"대구광역시 북구 복현로 115 (복현동, 복현현대맨션)","sido":"대구광역시","sigungu":"북구","lat":35.900253,"lng":128.619388},{"id":"3450000-S199500018","type":"civildefense","name":"산격주공아파트 108동 지하 1층","address":"대구광역시 북구 연암로 183, 지하1층 (산격동, 산격주공아파트)","sido":"대구광역시","sigungu":"북구","lat":35.900941,"lng":128.596164},{"id":"3450000-S200300062","type":"civildefense","name":"경북대 복현회관 지하 1층","address":"대구광역시 북구 대학로 80 (산격동, 경북대학교)","sido":"대구광역시","sigungu":"북구","lat":35.892367,"lng":128.609379},{"id":"3450000-S200300161","type":"civildefense","name":"전원아파트 지하주차장 1층","address":"대구광역시 북구 칠곡중앙대로46길 25(태전동, 현대전원맨션)","sido":"대구광역시","sigungu":"북구","lat":35.918469,"lng":128.549916},{"id":"3450000-S199500065","type":"civildefense","name":"삼성아파트 지하주차장1층","address":"대구광역시 북구 호암로 40 (칠성동2가, 삼성아파트)","sido":"대구광역시","sigungu":"북구","lat":35.881668,"lng":128.593632},{"id":"3450000-S200400027","type":"civildefense","name":"침산2지구아파트 지하주차장 1층","address":"대구광역시 북구 성북로 8 (침산동, 침산2지구아파트)","sido":"대구광역시","sigungu":"북구","lat":35.889849,"lng":128.584876},{"id":"3450000-S198500001","type":"civildefense","name":"현대자동차서비스 지하 1층","address":"대구광역시 북구 노원로 6 (노원동3가)","sido":"대구광역시","sigungu":"북구","lat":35.890406,"lng":128.563933},{"id":"3450000-S201600003","type":"civildefense","name":"강변일성트루엘 지하주차장 1~3층","address":"대구광역시 북구 침산남로 215(침산동, 강변일성트루엘)","sido":"대구광역시","sigungu":"북구","lat":35.887106,"lng":128.599702},{"id":"3450000-S199500017","type":"civildefense","name":"산격주공아파트 107동 지하 1층","address":"대구광역시 북구 연암로 183, 지하1층 (산격동, 산격주공아파트)","sido":"대구광역시","sigungu":"북구","lat":35.900941,"lng":128.596164},{"id":"3450000-S202100002","type":"civildefense","name":"대구연경 연경숲 지하주차장 1층","address":"대구광역시 북구 연경중앙로 55 (연경동, 대구연경 연경숲)","sido":"대구광역시","sigungu":"북구","lat":35.947139,"lng":128.617192},{"id":"3450000-S199500014","type":"civildefense","name":"산격주공아파트 104동 지하 1층","address":"대구광역시 북구 연암로 183, 지하1층 (산격동, 산격주공아파트)","sido":"대구광역시","sigungu":"북구","lat":35.900941,"lng":128.596164},{"id":"3450000-S200300155","type":"civildefense","name":"서한아파트 지하1층~2층 주차장","address":"대구광역시 북구 구암로32길 14(구암동, 칠곡3차서한타운)","sido":"대구광역시","sigungu":"북구","lat":35.930168,"lng":128.557713},{"id":"3450000-S201600008","type":"civildefense","name":"명문세가2단지 전체동 지하주차장 1층","address":"대구광역시 북구 복현로 50 (복현동, 복현블루밍브라운스톤명문세가아파트)","sido":"대구광역시","sigungu":"북구","lat":35.896506,"lng":128.624566},{"id":"3450000-S200300118","type":"civildefense","name":"북부도서관 지하 1층","address":"대구광역시 북구 옥산로 75 (침산동, 북부도서관)","sido":"대구광역시","sigungu":"북구","lat":35.884865,"lng":128.58393},{"id":"3450000-S199500013","type":"civildefense","name":"산격주공아파트 103동 지하 1층","address":"대구광역시 북구 연암로 183, 지하1층 (산격동, 산격주공아파트)","sido":"대구광역시","sigungu":"북구","lat":35.900941,"lng":128.596164},{"id":"3450000-S199800015","type":"civildefense","name":"침산동화타운 지하주차장(지하1~2층)","address":"대구광역시 북구 침산남로7길 50-21 (침산동, 침산동화타운)","sido":"대구광역시","sigungu":"북구","lat":35.893359,"lng":128.579941},{"id":"3450000-S200300171","type":"civildefense","name":"영남2차아파트 지하주차장 1층","address":"대구광역시 북구 팔거천동로24길 40 (동천동, 칠곡2차영남타운)","sido":"대구광역시","sigungu":"북구","lat":35.933574,"lng":128.560266},{"id":"3450000-S200300164","type":"civildefense","name":"우방미진아파트 지하주차장 1층","address":"대구광역시 북구 칠곡중앙대로52길 46 (태전동, 태전미진타운)","sido":"대구광역시","sigungu":"북구","lat":35.922715,"lng":128.549205},{"id":"3450000-S200900002","type":"civildefense","name":"학정청아람 지하주차장 1~2층","address":"대구광역시 북구 학정로110길 29(학정동, 학정청아람)","sido":"대구광역시","sigungu":"북구","lat":35.952679,"lng":128.567435},{"id":"3450000-S200400033","type":"civildefense","name":"청구1차아파트 지하주차장 1~2층","address":"대구광역시 북구 침산남로19길 9 (침산동, 침산청구타운)","sido":"대구광역시","sigungu":"북구","lat":35.89011,"lng":128.58667},{"id":"3450000-S200300141","type":"civildefense","name":"한신중앙아파트 전동 지하주차장 1층","address":"대구광역시 북구 영송로 85 (태전동, 한신중앙아파트)","sido":"대구광역시","sigungu":"북구","lat":35.932855,"lng":128.542658},{"id":"3450000-S200900003","type":"civildefense","name":"태전휴먼시아1단지아파트 지하주차장 1층","address":"대구광역시 북구 매전로 73 (태전동, 태전휴먼시아1단지)","sido":"대구광역시","sigungu":"북구","lat":35.912187,"lng":128.546199},{"id":"3450000-S199000010","type":"civildefense","name":"한전대경본부 구내식당 지하1층","address":"대구광역시 북구 원대로 110 (침산동)","sido":"대구광역시","sigungu":"북구","lat":35.887162,"lng":128.582717},{"id":"3450000-S200500014","type":"civildefense","name":"KT북대구지사지하주차장 지하1층","address":"대구광역시 북구 고성로 141 (고성동3가, KT북대구지사)","sido":"대구광역시","sigungu":"북구","lat":35.881443,"lng":128.581296},{"id":"3450000-S200300028","type":"civildefense","name":"복현2차서한아파트 전체동 지하주차장 1층","address":"대구광역시 북구 공항로15길 8 (복현동, 복현2차서한타운)","sido":"대구광역시","sigungu":"북구","lat":35.900111,"lng":128.623563},{"id":"3450000-S199500116","type":"civildefense","name":"유성청구아파트 지하헬스장 1층","address":"대구광역시 북구 검단로 115 (검단동, 유성청구아파트)","sido":"대구광역시","sigungu":"북구","lat":35.907225,"lng":128.619835},{"id":"3450000-S199500127","type":"civildefense","name":"한양수정아파트 204동 지하주차장 1층","address":"대구광역시 북구 구암로 17 (관음동, 칠곡2차(수정)한양아파트)","sido":"대구광역시","sigungu":"북구","lat":35.934017,"lng":128.542842},{"id":"3450000-S199500130","type":"civildefense","name":"한신아파트 지하주차장 1층","address":"대구광역시 북구 관음로 50 (관음동, 한신아파트)","sido":"대구광역시","sigungu":"북구","lat":35.934909,"lng":128.541197},{"id":"3450000-S200400017","type":"civildefense","name":"옥석타운 지하주차장 1층","address":"대구광역시 북구 침산남로31길 11(침산동, 옥석타운)","sido":"대구광역시","sigungu":"북구","lat":35.889377,"lng":128.592761},{"id":"3450000-S201700002","type":"civildefense","name":"대구역서희스타힐스 지하주차장1~2층","address":"대구광역시 북구 칠성남로 101 (칠성동2가, 대구역 서희스타힐스)","sido":"대구광역시","sigungu":"북구","lat":35.878702,"lng":128.591178},{"id":"3450000-S200400038","type":"civildefense","name":"동서타운 지하주차장 1층","address":"대구광역시 북구 침산남로 116 (침산동, 침산동서타운)","sido":"대구광역시","sigungu":"북구","lat":35.888736,"lng":128.588375},{"id":"3450000-S202000001","type":"civildefense","name":"침산화성파크드림 지하주차장 1~2층","address":"대구광역시 북구 성북로 70(침산동, 침산화성파크드림)","sido":"대구광역시","sigungu":"북구","lat":35.891023,"lng":128.592068},{"id":"3450000-S200400047","type":"civildefense","name":"대구동서변그린빌 지하주차장 1층","address":"대구광역시 북구 동변로 55(동변동, 대구동서변그린빌)","sido":"대구광역시","sigungu":"북구","lat":35.918245,"lng":128.603566},{"id":"3450000-S200300157","type":"civildefense","name":"한라아파트 지하1층~2층 주차장","address":"대구광역시 북구 구암로 170(구암동, 칠곡2차한라타운)","sido":"대구광역시","sigungu":"북구","lat":35.930113,"lng":128.559304},{"id":"3450000-S200400019","type":"civildefense","name":"침산2차화성타운 지하주차장 1~2층","address":"대구광역시 북구 침산남로37길 24(침산동, 침산2차화성아파트)","sido":"대구광역시","sigungu":"북구","lat":35.888791,"lng":128.595173},{"id":"3450000-S200500004","type":"civildefense","name":"대구역 민자역사 지하1층","address":"대구광역시 북구 태평로 161 (칠성동2가, 롯데백화점대구역)","sido":"대구광역시","sigungu":"북구","lat":35.87542,"lng":128.595945},{"id":"3450000-S201600001","type":"civildefense","name":"산격거평타운 전동 지하주차장 1층","address":"대구광역시 북구 유통단지로3길 7 (산격동, 산격거평아파트)","sido":"대구광역시","sigungu":"북구","lat":35.905543,"lng":128.604071},{"id":"3450000-S202200001","type":"civildefense","name":"오페라트루엘시민의숲지하주차장(지하1~2층)","address":"대구광역시 북구 고성북로 34(고성동3가, 오페라트루엘 시민의 숲)","sido":"대구광역시","sigungu":"북구","lat":35.882954,"lng":128.583433},{"id":"3450000-S200300126","type":"civildefense","name":"대현신화빌라 지하주차장 1층","address":"대구광역시 북구 대현로19길 23 (대현동, 대현동아파트)","sido":"대구광역시","sigungu":"북구","lat":35.884658,"lng":128.609822},{"id":"3450000-S200300166","type":"civildefense","name":"중석타운 전체동 지하주차장 1층","address":"대구광역시 북구 학정로7길 3 (태전동, 태전중석타운)","sido":"대구광역시","sigungu":"북구","lat":35.913995,"lng":128.546447},{"id":"3450000-S200300154","type":"civildefense","name":"칠곡금빛타운 지하1층 주차장","address":"대구광역시 북구 팔거천동로 70(구암동, 칠곡금빛타운)","sido":"대구광역시","sigungu":"북구","lat":35.930273,"lng":128.554229},{"id":"3450000-S200300151","type":"civildefense","name":"동서영남타운 지하1층 주차장","address":"대구광역시 북구 구암로 180(구암동, 칠곡동서영남아파트)","sido":"대구광역시","sigungu":"북구","lat":35.930047,"lng":128.559511},{"id":"3450000-S201700006","type":"civildefense","name":"금호천년나무8단지 지하주차장 1층","address":"대구광역시 북구 내곡로 15 (사수동, 대구금호엘에이치천년나무8단지)","sido":"대구광역시","sigungu":"북구","lat":35.897071,"lng":128.509285},{"id":"3450000-S201600004","type":"civildefense","name":"고성아파트지하주차장 지하1층","address":"대구광역시 북구 고성북로 3 (고성동2가, 고성아파트)","sido":"대구광역시","sigungu":"북구","lat":35.880183,"lng":128.582316},{"id":"3450000-S200500009","type":"civildefense","name":"전시컨벤션센터 지하주차장 1 ~ 4층","address":"대구광역시 북구 엑스코로 10, 대구전시컨벤션센터 (산격동)","sido":"대구광역시","sigungu":"북구","lat":35.907012,"lng":128.612637},{"id":"3450000-S199500011","type":"civildefense","name":"산격주공아파트 101동 지하 1층","address":"대구광역시 북구 연암로 183, 지하1층 (산격동, 산격주공아파트)","sido":"대구광역시","sigungu":"북구","lat":35.900941,"lng":128.596164},{"id":"3450000-S200300120","type":"civildefense","name":"성지무궁화아파트 지하주차장 1층","address":"대구광역시 북구 경대로7길 60 (대현동, 성지무궁화아파트)","sido":"대구광역시","sigungu":"북구","lat":35.886124,"lng":128.607919},{"id":"3450000-S201200001","type":"civildefense","name":"대현e편한세상아파트 104동, 105동 지하1~2층","address":"대구광역시 북구 대현로10길 82 (대현동, 대현e-편한세상)","sido":"대구광역시","sigungu":"북구","lat":35.881528,"lng":128.604101},{"id":"3450000-S199800022","type":"civildefense","name":"청구장미마을 지하주차장 1층","address":"대구광역시 북구 칠곡중앙대로 45 (매천동, 청구장미마을)","sido":"대구광역시","sigungu":"북구","lat":35.900282,"lng":128.547398},{"id":"3450000-S199500007","type":"civildefense","name":"강병원 지하 1층","address":"대구광역시 북구 노원로 70 (노원동3가)","sido":"대구광역시","sigungu":"북구","lat":35.89373,"lng":128.569685},{"id":"3450000-S200300146","type":"civildefense","name":"롯데아파트 전동 지하주차장 1층","address":"대구광역시 북구 구암로 12 (태전동, 롯데아파트)","sido":"대구광역시","sigungu":"북구","lat":35.93374,"lng":128.542161},{"id":"3450000-S200300061","type":"civildefense","name":"경북대 도서관 신관 지하 1층","address":"대구광역시 북구 대학로 80 (산격동, 경북대학교)","sido":"대구광역시","sigungu":"북구","lat":35.892367,"lng":128.609379},{"id":"3450000-S199500074","type":"civildefense","name":"대구도시공사지하주차장(지하1~2층)","address":"대구광역시 북구 침산로 73 (고성동3가, 도시개발공사 사옥)","sido":"대구광역시","sigungu":"북구","lat":35.883143,"lng":128.589477},{"id":"3450000-S200400022","type":"civildefense","name":"대구일중학교 본관 지하 1층","address":"대구광역시 북구 옥산로17길 21 (침산동, 대구일중학교)","sido":"대구광역시","sigungu":"북구","lat":35.886443,"lng":128.58554},{"id":"3450000-S202100004","type":"civildefense","name":"노원한신더휴 지하주차장 1~2층","address":"대구광역시 북구 노원로10길 40 (노원동3가, 대구노원한신더휴)","sido":"대구광역시","sigungu":"북구","lat":35.891701,"lng":128.569644},{"id":"3450000-S200400034","type":"civildefense","name":"현대아파트 지하주차장 1~2층","address":"대구광역시 북구 침산로 163 (침산동, 현대아파트)","sido":"대구광역시","sigungu":"북구","lat":35.890764,"lng":128.590158},{"id":"3450000-S201300001","type":"civildefense","name":"대구시티병원 지하 1층","address":"대구광역시 북구 동북로 270 (복현동)","sido":"대구광역시","sigungu":"북구","lat":35.893478,"lng":128.619706},{"id":"3450000-S200300137","type":"civildefense","name":"은마아파트 A동 지하1층","address":"대구광역시 북구 태전로 51 (태전동, 제림은마아파트)","sido":"대구광역시","sigungu":"북구","lat":35.924577,"lng":128.543726},{"id":"3450000-S201700007","type":"civildefense","name":"금호천년나무5단지 지하주차장 1층","address":"대구광역시 북구 내곡로 69 (사수동, 대구금호엘에이치천년나무5단지)","sido":"대구광역시","sigungu":"북구","lat":35.902117,"lng":128.510405},{"id":"3450000-S199500064","type":"civildefense","name":"성광우방아파트 지하주차장1층","address":"대구광역시 북구 호암로 20 (칠성동2가, 성광우방타운)","sido":"대구광역시","sigungu":"북구","lat":35.881719,"lng":128.593147},{"id":"3450000-S200400023","type":"civildefense","name":"북대구세무서 후생관 지하 1층","address":"대구광역시 북구 원대로 118 (침산동)","sido":"대구광역시","sigungu":"북구","lat":35.887809,"lng":128.583416},{"id":"3460000-S200700005","type":"civildefense","name":"캐슬골드파크4단지아파트 전체 동의 지하주차장 1~2층","address":"대구광역시 수성구 청수로 261, 주차장 지하 1~2층 (황금동, 캐슬골드파크 4단지)","sido":"대구광역시","sigungu":"수성구","lat":35.841408,"lng":128.63638},{"id":"3460000-S199100017","type":"civildefense","name":"지산5단지아파트 지하주차장 1층","address":"대구광역시 수성구 용학로 325, 전체동의지하주차장1층 (지산동, 지산5단지아파트)","sido":"대구광역시","sigungu":"수성구","lat":35.823594,"lng":128.642634},{"id":"3460000-S201000014","type":"civildefense","name":"대우트럼프월드수성 전체 동의 지하주차장 1~2층","address":"대구광역시 수성구 동대구로 59, 지하1~2층 (두산동, 대우트럼프월드수성아파트)","sido":"대구광역시","sigungu":"수성구","lat":35.835543,"lng":128.622828},{"id":"3460000-S200600041","type":"civildefense","name":"대구은행역 지하 1~3층","address":"대구광역시 수성구 달구벌대로 지하2300, 대구은행역 지하1~3층 (수성동4가)","sido":"대구광역시","sigungu":"수성구","lat":35.859719,"lng":128.614303},{"id":"3460000-S201000009","type":"civildefense","name":"범어쌍용예가 전체 동의 지하주차장 1~2층","address":"대구광역시 수성구 명덕로 477, 지하주차장지하1~2층 (범어동, 범어 쌍용 예가)","sido":"대구광역시","sigungu":"수성구","lat":35.854801,"lng":128.621141},{"id":"3460000-S199100019","type":"civildefense","name":"지산한라타운 지하주차장 1층","address":"대구광역시 수성구 지범로22길 9, 주차장 지하 1층 (지산동, 지산한라타운)","sido":"대구광역시","sigungu":"수성구","lat":35.822534,"lng":128.635758},{"id":"3460000-S201100005","type":"civildefense","name":"월드메르디앙웨스턴카운티 전체 동의 지하주차장 1~2층","address":"대구광역시 수성구 범어천로 200, 지하주차장 1~2층 (범어동, 범어 월드메르디앙 웨스턴 카운티)","sido":"대구광역시","sigungu":"수성구","lat":35.864207,"lng":128.619656},{"id":"3460000-S201500001","type":"civildefense","name":"수성롯데캐슬더퍼스트 전체 동의 지하주차장 1~2층","address":"대구광역시 수성구 수성로69길 65, 지하1~2층 (수성동1가, 수성 롯데캐슬 THE FIRST)","sido":"대구광역시","sigungu":"수성구","lat":35.856171,"lng":128.610062},{"id":"3460000-S199600035","type":"civildefense","name":"사월보성타운 지하주차장 1~2층","address":"대구광역시 수성구 욱수천로 133, 지하주차장 1~2층 (사월동, 시지2차사월보성타운)","sido":"대구광역시","sigungu":"수성구","lat":35.839359,"lng":128.715266},{"id":"3460000-S200600047","type":"civildefense","name":"알파시티역 지하 1~5층","address":"대구광역시 수성구 달구벌대로 지하2950, 수성알파시티역 (연호동)","sido":"대구광역시","sigungu":"수성구","lat":35.84263,"lng":128.680005},{"id":"3460000-S200400001","type":"civildefense","name":"황금미진아파트 지하주차장 1층","address":"대구광역시 수성구 청솔로12길 40 (황금동, 황금미진아파트)","sido":"대구광역시","sigungu":"수성구","lat":35.85046,"lng":128.622834},{"id":"3460000-S201000013","type":"civildefense","name":"파동화성파크뷰아파트 전체 동의 지하주차장 1~2층","address":"대구광역시 수성구 파동로 19, 101동 근처주차장지하1~2층 (파동, 화성파크뷰)","sido":"대구광역시","sigungu":"수성구","lat":35.806763,"lng":128.622018},{"id":"3460000-S200600034","type":"civildefense","name":"시지푸르지오 전체 동의 지하주차장 1~2층","address":"대구광역시 수성구 달구벌대로661길 7, 주차장지하 1~2층 (사월동, 대구 시지 푸르지오)","sido":"대구광역시","sigungu":"수성구","lat":35.837037,"lng":128.719136},{"id":"3460000-S201200008","type":"civildefense","name":"범어역우방유쉘 전체 동의 지하주차장 1~3층","address":"대구광역시 수성구 동대구로 345, 지하주차장 1~3층 (범어동, 범어역우방유쉘)","sido":"대구광역시","sigungu":"수성구","lat":35.86117,"lng":128.625928},{"id":"3460000-S199100028","type":"civildefense","name":"지산보성맨션 지하주차장 1층","address":"대구광역시 수성구 지범로22길 10, 주차장 지하1층 (지산동, 지산보성맨션)","sido":"대구광역시","sigungu":"수성구","lat":35.822647,"lng":128.635608},{"id":"3460000-S199700007","type":"civildefense","name":"만촌2차우방타운 전체 동의 지하주차장 1층","address":"대구광역시 수성구 교학로11길 91, 전체동 지하주차장1층 (만촌동, 만촌2차우방타운)","sido":"대구광역시","sigungu":"수성구","lat":35.849651,"lng":128.65691},{"id":"3460000-S199600004","type":"civildefense","name":"범물청아타운 전체 동의 지하주차장 1층","address":"대구광역시 수성구 범안로 40, 지하주차장 지하1층 (범물동, 범물청아타운)","sido":"대구광역시","sigungu":"수성구","lat":35.817313,"lng":128.641548},{"id":"3460000-S201700005","type":"civildefense","name":"보국웰리치 101, 103동 근처 지하주차장 1~2층","address":"대구광역시 수성구 욱수천로 55, 지하주차장 1~2층 (욱수동, 보국 웰리치아파트)","sido":"대구광역시","sigungu":"수성구","lat":35.833895,"lng":128.711042},{"id":"3460000-S201000017","type":"civildefense","name":"수성태영데시앙 전체 동의 지하주차장 1~2층","address":"대구광역시 수성구 들안로 360, 지하주차장지하1~2층 (수성동4가, 수성 태영 데시앙)","sido":"대구광역시","sigungu":"수성구","lat":35.862178,"lng":128.618031},{"id":"3460000-S199200005","type":"civildefense","name":"범물영남보성타운 전체 동의 지하주차장 1층","address":"대구광역시 수성구 용학로 316, 범물영남보성아파트 지하주차장 지하1층 (범물동, 범물영남보성아파트)","sido":"대구광역시","sigungu":"수성구","lat":35.822838,"lng":128.642055},{"id":"3460000-S201000010","type":"civildefense","name":"범어유림노르웨이숲 전체 동의 지하주차장 1~2층","address":"대구광역시 수성구 동대구로50길 37, 지하2층 (범어동, 유림노르웨이숲)","sido":"대구광역시","sigungu":"수성구","lat":35.852201,"lng":128.627751},{"id":"3460000-S200600046","type":"civildefense","name":"연호역 지하 1~3층","address":"대구광역시 수성구 달구벌대로 지하2870, 연호역 지하1~3층 (연호동)","sido":"대구광역시","sigungu":"수성구","lat":35.846431,"lng":128.671855},{"id":"3460000-S200600052","type":"civildefense","name":"매호효성백년가약 전체 동의 지하주차장 1층","address":"대구광역시 수성구 천을로23길 31, 주차장지하 1층 (매호동, 매호 효성백년가약 아파트)","sido":"대구광역시","sigungu":"수성구","lat":35.846113,"lng":128.705705},{"id":"3460000-S199100024","type":"civildefense","name":"지산우방타운 지하주차장 1층","address":"대구광역시 수성구 지산로 32, 주차장 지하1층 (지산동, 지산우방타운)","sido":"대구광역시","sigungu":"수성구","lat":35.824051,"lng":128.632987},{"id":"3460000-S198900003","type":"civildefense","name":"시지전원타운 제1~4지하주차장 1층","address":"대구광역시 수성구 시지로 45, 1~4지하주차장지하층 (시지동, 전원타운)","sido":"대구광역시","sigungu":"수성구","lat":35.840086,"lng":128.695579},{"id":"3460000-S201800001","type":"civildefense","name":"대우로얄하이츠 지하주차장 1층","address":"대구광역시 수성구 용학로36길 20, 주차장 지하1층 (지산동, 지산대우로얄하이츠)","sido":"대구광역시","sigungu":"수성구","lat":35.820747,"lng":128.628201},{"id":"3460000-S201200004","type":"civildefense","name":"래미안범어아파트 전체 동의 지하주차장 1~3층","address":"대구광역시 수성구 상록로 69, 지하주차장 1~3층 (범어동, 래미안수성아파트)","sido":"대구광역시","sigungu":"수성구","lat":35.865591,"lng":128.62384},{"id":"3460000-S199700010","type":"civildefense","name":"동서무학아파트 지하주차장 1~2층","address":"대구광역시 수성구 지산로14길 83, 전체동의지하주차장1층 (지산동, 동서무학아파트)","sido":"대구광역시","sigungu":"수성구","lat":35.826283,"lng":128.638207},{"id":"3460000-S199200006","type":"civildefense","name":"범물하이츠 전체 동의 지하주차장 1층","address":"대구광역시 수성구 용학로 336, 지하주차장 지하1층 (범물동, 범물 하이츠)","sido":"대구광역시","sigungu":"수성구","lat":35.824375,"lng":128.643339},{"id":"3460000-S200500005","type":"civildefense","name":"우방오성타운 전체 동의 지하주차장 1~2층","address":"대구광역시 수성구 신천동로 380, 지하1층 (수성동1가, 우방오성타운)","sido":"대구광역시","sigungu":"수성구","lat":35.859169,"lng":128.608706},{"id":"3460000-S202500002","type":"civildefense","name":"롬바드아파트 지하주차장 1~2층","address":"대구광역시 수성구 들안로 325 (수성동2가, 롬바드 아파트)","sido":"대구광역시","sigungu":"수성구","lat":35.858952,"lng":128.616918},{"id":"3460000-S199100011","type":"civildefense","name":"동서아파트 지하주차장 1층","address":"대구광역시 수성구 지산로 56, 전체동의지하주차장1층 (지산동, 동서아파트)","sido":"대구광역시","sigungu":"수성구","lat":35.826193,"lng":128.633839},{"id":"3460000-S199700003","type":"civildefense","name":"하나타운 지하주차장 1층","address":"대구광역시 수성구 고산로 123, 지하주차장 1층 (매호동, 하나타운)","sido":"대구광역시","sigungu":"수성구","lat":35.841987,"lng":128.704293},{"id":"3460000-S201000004","type":"civildefense","name":"만촌보성타운 전체 동의 지하주차장 1~2층","address":"대구광역시 수성구 공경로 70, 지하주차장지하1~2층 (만촌동, 만촌보성타운아파트)","sido":"대구광역시","sigungu":"수성구","lat":35.873653,"lng":128.642895},{"id":"3460000-S200400004","type":"civildefense","name":"태왕아너스아파트 전체 동의 지하주차장 1~2층","address":"대구광역시 수성구 청호로 345, 주차장 지하 1~2층 (황금동, 태왕아너스아파트)","sido":"대구광역시","sigungu":"수성구","lat":35.848282,"lng":128.638155},{"id":"3460000-S199100013","type":"civildefense","name":"지산청구 지하주차장 1층","address":"대구광역시 수성구 지산로 48, 전체동의자하주차장1층 (지산동, 지산청구)","sido":"대구광역시","sigungu":"수성구","lat":35.825275,"lng":128.633562},{"id":"3460000-S200600048","type":"civildefense","name":"고산역 지하 1~3층","address":"대구광역시 수성구 달구벌대로 3080, 고산역 지하1~3층 (시지동)","sido":"대구광역시","sigungu":"수성구","lat":35.842612,"lng":128.693847},{"id":"3460000-S201000008","type":"civildefense","name":"시지효성백년가약1단지 전체 동의 지하주차장 1~3층","address":"대구광역시 수성구 달구벌대로 3280, 지하주차장 1~3층 (신매동, 시지 효성 백년가약 1단지)","sido":"대구광역시","sigungu":"수성구","lat":35.835966,"lng":128.714515},{"id":"3460000-S201000007","type":"civildefense","name":"두산위브더제니스 지하주차장 3~5층","address":"대구광역시 수성구 달구벌대로 2435, 지하주차장 지하3층 (범어동, 두산위브더제니스)","sido":"대구광역시","sigungu":"수성구","lat":35.859192,"lng":128.629106},{"id":"3460000-S199100025","type":"civildefense","name":"지산영남맨션 지하주차장 1층","address":"대구광역시 수성구 지산로 31, 주차장 지하1층 (지산동, 지산영남맨션)","sido":"대구광역시","sigungu":"수성구","lat":35.824188,"lng":128.632693},{"id":"3460000-S199300005","type":"civildefense","name":"수성구청 대강당 지하 1층","address":"대구광역시 수성구 달구벌대로 2450, 수성구청 대강당 지하1층 (범어동)","sido":"대구광역시","sigungu":"수성구","lat":35.858546,"lng":128.63061},{"id":"3460000-S199600002","type":"civildefense","name":"범물신화에덴아파트 전체 동의 지하주차장 1층","address":"대구광역시 수성구 지범로40길 6, 지하주차장 지하1층 (범물동, 신화에덴아파트)","sido":"대구광역시","sigungu":"수성구","lat":35.819735,"lng":128.640741},{"id":"3460000-S199700008","type":"civildefense","name":"만촌1차우방타운 전체 동의 지하주차장 1~2층","address":"대구광역시 수성구 교학로11길 46, 전체동 지하주차장1~2층 (만촌동, 만촌1차우방타운)","sido":"대구광역시","sigungu":"수성구","lat":35.850411,"lng":128.654493},{"id":"3460000-S199600003","type":"civildefense","name":"범물서한화성아파트 전체 동의 지하주차장 1층","address":"대구광역시 수성구 지범로40길 11, 지하주차장 지하1층 (범물동, 서한화성아파트)","sido":"대구광역시","sigungu":"수성구","lat":35.81898,"lng":128.64104},{"id":"3460000-S199200004","type":"civildefense","name":"범물보성맨션 전체 동의 지하주차장 1층","address":"대구광역시 수성구 용학로 316, 지하주차장지하층 (범물동, 범물영남보성아파트)","sido":"대구광역시","sigungu":"수성구","lat":35.822838,"lng":128.642055},{"id":"3460000-S199100023","type":"civildefense","name":"에덴아파트 지하주차장 1층","address":"대구광역시 수성구 용학로 223, 주차장 지하1층 (지산동, 지산에덴아파트)","sido":"대구광역시","sigungu":"수성구","lat":35.821098,"lng":128.633016},{"id":"3460000-S199600030","type":"civildefense","name":"우방청솔맨션 전체 동의 지하주차장 1~2층","address":"대구광역시 수성구 청호로 422, 지하1층 (범어동, 우방청솔맨션)","sido":"대구광역시","sigungu":"수성구","lat":35.854199,"lng":128.639768},{"id":"3460000-S200600043","type":"civildefense","name":"수성구청역 지하 1~4층","address":"대구광역시 수성구 달구벌대로 지하2500, 수성구청역 지하1-4층 (범어동)","sido":"대구광역시","sigungu":"수성구","lat":35.858775,"lng":128.636051},{"id":"3460000-S200700006","type":"civildefense","name":"캐슬골드파크5단지아파트 전체 동의 지하주차장 1~2층","address":"대구광역시 수성구 청수로 214, 주차장 지하 1~2층 (황금동, 캐슬골드파크5단지)","sido":"대구광역시","sigungu":"수성구","lat":35.839569,"lng":128.631524},{"id":"3460000-S201500003","type":"civildefense","name":"효성백년가약궁 전체 동의 지하주차장 1~2층","address":"대구광역시 수성구 청호로 466, 지하 1층 (범어동, 효성백년가약 궁)","sido":"대구광역시","sigungu":"수성구","lat":35.857097,"lng":128.643879},{"id":"3460000-S200600050","type":"civildefense","name":"사월역 지하 1, 3, 4층","address":"대구광역시 수성구 달구벌대로 지하3290, 사월역 지하1,3,4층 (신매동)","sido":"대구광역시","sigungu":"수성구","lat":35.836791,"lng":128.715365},{"id":"3460000-S200500010","type":"civildefense","name":"신세계타운 전체 동의 지하주차장 1~2층(입구2동옆)","address":"대구광역시 수성구 신천동로 320, 2동 지하1층 (수성동1가, 신세계타운)","sido":"대구광역시","sigungu":"수성구","lat":35.853615,"lng":128.609137},{"id":"3460000-S201000001","type":"civildefense","name":"메트로팔레스1단지 전체 동의 지하주차장 1~2층","address":"대구광역시 수성구 동원로 135, 지하주차장지하1~2층 (만촌동, 메트로팔레스1단지아파트)","sido":"대구광역시","sigungu":"수성구","lat":35.869499,"lng":128.635009},{"id":"3460000-S202200002","type":"civildefense","name":"범어서한포레스트 지하주차장 1층","address":"대구광역시 수성구 동대구로 346, 지하주차장 지하1층 (범어동, 범어서한포레스트)","sido":"대구광역시","sigungu":"수성구","lat":35.86138,"lng":128.627422},{"id":"3460000-S202200001","type":"civildefense","name":"브라운스톤범어 지하주차장 1~6층","address":"대구광역시 수성구 동대구로 354, 지하주차장 지하1층 (범어동, 브라운스톤 범어)","sido":"대구광역시","sigungu":"수성구","lat":35.86183,"lng":128.627214},{"id":"3460000-S201700001","type":"civildefense","name":"정화우방팔레스 지하주차장 1층","address":"대구광역시 수성구 수성로 135, 지하주차장 지하1층 (상동, 정화우방팔레스)","sido":"대구광역시","sigungu":"수성구","lat":35.83759,"lng":128.611701},{"id":"3460000-S199100016","type":"civildefense","name":"지산서한이다음아파트 지하주차장 1층","address":"대구광역시 수성구 용학로 313, 전체동의지하주차장1층 (지산동, 지산서한이다음아파트)","sido":"대구광역시","sigungu":"수성구","lat":35.823303,"lng":128.641391},{"id":"3460000-S201000003","type":"civildefense","name":"화성파크스위트 전체 동의 지하주차장 1~2층","address":"대구광역시 수성구 화랑로34길 141, 지하주차장지하1~2층 (만촌동, 화성파크스위트)","sido":"대구광역시","sigungu":"수성구","lat":35.874419,"lng":128.652794},{"id":"3460000-S199100022","type":"civildefense","name":"지산현대맨션 지하주차장 1층","address":"대구광역시 수성구 지범로22길 20, 주차장 지하1층 (지산동, 지산현대맨션)","sido":"대구광역시","sigungu":"수성구","lat":35.821798,"lng":128.63524},{"id":"3460000-S200500013","type":"civildefense","name":"우방한가람타운 지하주차장 1~3층","address":"대구광역시 수성구 명덕로 368, 지하1~3층 (수성동1가, 우방한가람타운)","sido":"대구광역시","sigungu":"수성구","lat":35.854438,"lng":128.610246},{"id":"3460000-S199100015","type":"civildefense","name":"지산타운 지하주차장 1층","address":"대구광역시 수성구 용학로 303, 전체동의지하주차장1층 (지산동, 지산타운)","sido":"대구광역시","sigungu":"수성구","lat":35.822285,"lng":128.640941},{"id":"3460000-S200600045","type":"civildefense","name":"담티역 지하 1~2층","address":"대구광역시 수성구 달구벌대로 지하2672, 담티역 (만촌동)","sido":"대구광역시","sigungu":"수성구","lat":35.854867,"lng":128.65368},{"id":"3460000-S201700004","type":"civildefense","name":"범어숲화성파크드림S 103동 근처 지하주차장 1~4층","address":"대구광역시 수성구 동대구로 376, 103동 지하주차장 지하1층 (범어동, 범어숲 화성파크드림S)","sido":"대구광역시","sigungu":"수성구","lat":35.864081,"lng":128.627582},{"id":"3460000-S200700003","type":"civildefense","name":"캐슬골드파크2단지아파트 전체 동의 지하주차장 1~2층","address":"대구광역시 수성구 청수로 235, 주차장 지하 1~2층 (황금동, 캐슬골드파크 2단지)","sido":"대구광역시","sigungu":"수성구","lat":35.841228,"lng":128.633311},{"id":"3460000-S202000001","type":"civildefense","name":"수성효성해링턴플레이스 지하주차장 1층","address":"대구광역시 수성구 희망로24길 24, 지하주차장 지하1층 (중동, 수성 효성해링턴플레이스)","sido":"대구광역시","sigungu":"수성구","lat":35.845892,"lng":128.611333},{"id":"3460000-S201000006","type":"civildefense","name":"수성3가롯데캐슬 전체 동의 지하주차장 1~2층","address":"대구광역시 수성구 명덕로 455, 지하주차장 1~2층 (수성동3가, 수성3가롯데캐슬아파트)","sido":"대구광역시","sigungu":"수성구","lat":35.855488,"lng":128.62086},{"id":"3460000-S199100012","type":"civildefense","name":"청산맨션 지하주차장 1층","address":"대구광역시 수성구 지범로21길 15, 전체동의지하주차장1층 (지산동, 청산맨션)","sido":"대구광역시","sigungu":"수성구","lat":35.825167,"lng":128.635781},{"id":"3460000-S199100026","type":"civildefense","name":"화성맨션 지하주차장 1층","address":"대구광역시 수성구 용학로35길 62, 주차장 지하1층 (지산동, 화성맨션)","sido":"대구광역시","sigungu":"수성구","lat":35.824984,"lng":128.629789},{"id":"3460000-S201000015","type":"civildefense","name":"수성화성파크드림 전체 동의 지하주차장 1~2층","address":"대구광역시 수성구 용학로28길 8, 지하1~2층 (두산동, 수성화성파크드림)","sido":"대구광역시","sigungu":"수성구","lat":35.822895,"lng":128.624633},{"id":"3460000-S200600040","type":"civildefense","name":"만촌역 지하 1~3층","address":"대구광역시 수성구 달구벌대로 지하2584, 만촌역 지하1~3층 (만촌동)","sido":"대구광역시","sigungu":"수성구","lat":35.85883,"lng":128.645443},{"id":"3460000-S202500001","type":"civildefense","name":"노변다숲아파트 제1~3지하주차장 1층","address":"대구광역시 수성구 노변공원로 34 (시지동, 노변다숲아파트)","sido":"대구광역시","sigungu":"수성구","lat":35.838844,"lng":128.698314},{"id":"3460000-S198600010","type":"civildefense","name":"산장맨션 전체 동의 지하주차장 1층","address":"대구광역시 수성구 교학로 111, 전체동 주차장지하1층 (만촌동, 산장맨션)","sido":"대구광역시","sigungu":"수성구","lat":35.847909,"lng":128.649752},{"id":"3460000-S200000004","type":"civildefense","name":"시지천마타운 제1~4지하주차장 1층","address":"대구광역시 수성구 신매로 71, 지하주차장 1층 (신매동, 시지천마타운)","sido":"대구광역시","sigungu":"수성구","lat":35.836016,"lng":128.708225},{"id":"3460000-S201700006","type":"civildefense","name":"태왕월드하이츠 전체 동의 지하주차장 1층","address":"대구광역시 수성구 욱수천로 7, 지하주차장 1층 (욱수동, 태왕월드하이츠아파트)","sido":"대구광역시","sigungu":"수성구","lat":35.829577,"lng":128.709601},{"id":"3460000-S200600039","type":"civildefense","name":"만촌태왕리더스아파트 전체 동의 지하주차장 1~2층","address":"대구광역시 수성구 무열로 47, 지하1~2층 (만촌동, 만촌태왕리더스)","sido":"대구광역시","sigungu":"수성구","lat":35.862835,"lng":128.648333},{"id":"3460000-S199100027","type":"civildefense","name":"지산리더스 지하주차장 1층","address":"대구광역시 수성구 지산로 5, 주차장 지하1층 (지산동, 지산리더스)","sido":"대구광역시","sigungu":"수성구","lat":35.821975,"lng":128.631701},{"id":"3460000-S199100014","type":"civildefense","name":"지산보성맨션 지하주차장 1층","address":"대구광역시 수성구 지범로21길 3, 전체동의지하주차장1층 (지산동, 지산보성맨션)","sido":"대구광역시","sigungu":"수성구","lat":35.823994,"lng":128.63625},{"id":"3460000-S199700002","type":"civildefense","name":"범물두성타운 전체 동의 지하주차장 1층","address":"대구광역시 수성구 지범로 300, 지하주차장 지하1층 (범물동, 범물두성타운아파트)","sido":"대구광역시","sigungu":"수성구","lat":35.814497,"lng":128.649279},{"id":"3460000-S199600005","type":"civildefense","name":"범물삼주타운 전체 동의 지하주차장 1층","address":"대구광역시 수성구 범안로8길 35, 지하주차장 지하1층 (범물동, 범물삼주타운)","sido":"대구광역시","sigungu":"수성구","lat":35.815903,"lng":128.641034},{"id":"3460000-S200600006","type":"civildefense","name":"한일유앤아이 전체 동의 지하주차장 1~2층","address":"대구광역시 수성구 고산로 162, 주차장지하 1~2층 (매호동, 한일유앤아이)","sido":"대구광역시","sigungu":"수성구","lat":35.845092,"lng":128.707517},{"id":"3460000-S200600049","type":"civildefense","name":"신매역 지하 1~3층","address":"대구광역시 수성구 달구벌대로 지하3180, 신매역 지하1~3층 (매호동)","sido":"대구광역시","sigungu":"수성구","lat":35.840744,"lng":128.704353},{"id":"3460000-S201700002","type":"civildefense","name":"수성못코오롱하늘채아파트 전체 동의 지하주차장 1~3층","address":"대구광역시 수성구 파동로 222, 112동 근처주차장지하1~3층 (파동, 수성못코오롱하늘채)","sido":"대구광역시","sigungu":"수성구","lat":35.822241,"lng":128.612563},{"id":"3460000-S201000016","type":"civildefense","name":"수성대림e편한세상 전체 동의 지하주차장 1~2층","address":"대구광역시 수성구 들안로73길 50-7, 지하주차장지하1~2층 (수성동4가, 수성대림 e-편한세상)","sido":"대구광역시","sigungu":"수성구","lat":35.86441,"lng":128.615059},{"id":"3460000-S200600042","type":"civildefense","name":"범어역 지하 1~4층","address":"대구광역시 수성구 달구벌대로 지하2396,  범어역 지하1~4층 (범어동)","sido":"대구광역시","sigungu":"수성구","lat":35.859033,"lng":128.624505},{"id":"3460000-S201700007","type":"civildefense","name":"수성아트피아 지하주차장 1~2층","address":"대구광역시 수성구 무학로 180, 수성아트피아 지하주차장지하1~2층 (지산동)","sido":"대구광역시","sigungu":"수성구","lat":35.829647,"lng":128.628125},{"id":"3460000-S199100020","type":"civildefense","name":"지산협화맨션 지하주차장 1층","address":"대구광역시 수성구 지범로22길 23, 주차장 지하1층 (지산동, 지산협화맨션)","sido":"대구광역시","sigungu":"수성구","lat":35.821342,"lng":128.635204},{"id":"3460000-S199100018","type":"civildefense","name":"대구경찰청 지하주차장 1층","address":"대구광역시 수성구 무학로 227, 대구광역시경찰청 지하주차장 지하1층 (지산동)","sido":"대구광역시","sigungu":"수성구","lat":35.829193,"lng":128.633152},{"id":"3460000-S201000005","type":"civildefense","name":"수성동일하이빌레이크시티아파트 지하주차장 1~2층","address":"대구광역시 수성구 수성로 71, 지하주차장 지하1층 (상동, 수성동일하이빌레이크시티아파트)","sido":"대구광역시","sigungu":"수성구","lat":35.831876,"lng":128.610919},{"id":"3460000-S198900012","type":"civildefense","name":"녹원아파트 전체 동의 지하주차장 1층","address":"대구광역시 수성구 무학로 189, 전체동의지하주차장1층 (지산동, 녹원아파트)","sido":"대구광역시","sigungu":"수성구","lat":35.83088,"lng":128.629445},{"id":"3460000-S201900001","type":"civildefense","name":"홈플러스 대구수성점 지하주차장 2~3층","address":"대구광역시 수성구 동대구로 95, 지하주차장2~3층 (두산동, 수성 SK리더스뷰)","sido":"대구광역시","sigungu":"수성구","lat":35.838905,"lng":128.623582},{"id":"3460000-S201000002","type":"civildefense","name":"메트로팔레스5단지 전체 동의 지하주차장 1~3층","address":"대구광역시 수성구 동원로 100, 지하주차장지하1~3층 (만촌동, 메트로팔레스5단지아파트)","sido":"대구광역시","sigungu":"수성구","lat":35.869028,"lng":128.640397},{"id":"3460000-S199200003","type":"civildefense","name":"범물용지아파트 전체 동의 지하주차장 1층","address":"대구광역시 수성구 범안로 77, 범물용지아파트 지하1층 지하주차장 (범물동, 범물용지아파트)","sido":"대구광역시","sigungu":"수성구","lat":35.81885,"lng":128.645968},{"id":"3460000-S201700003","type":"civildefense","name":"대구수성아이파크아파트 전체 동의 지하주차장 1~2층","address":"대구광역시 수성구 파동로22길 15, 102동 근처주차장지하1~2층 (파동, 수성 아이파크)","sido":"대구광역시","sigungu":"수성구","lat":35.813024,"lng":128.618069},{"id":"3460000-S201500002","type":"civildefense","name":"범어SK뷰아파트 전체 동의 지하주차장 1~2층","address":"대구광역시 수성구 범어로 73, 지하1층 (범어동, 범어 SK VIEW)","sido":"대구광역시","sigungu":"수성구","lat":35.855907,"lng":128.634833},{"id":"3460000-S200900001","type":"civildefense","name":"제림은세계 지하주차장 1층","address":"대구광역시 수성구 달구벌대로 3081, 지하주차장 지하 1층 (시지동, 제림은세계아파트)","sido":"대구광역시","sigungu":"수성구","lat":35.843523,"lng":128.694131},{"id":"3460000-S200400002","type":"civildefense","name":"코아시스프라자 지하주차장 1~3층","address":"대구광역시 수성구 동대구로 149, 코아시스아파트 지하주차장 지하1~3층 (황금동)","sido":"대구광역시","sigungu":"수성구","lat":35.843723,"lng":128.624018},{"id":"3470000-S199100017","type":"civildefense","name":"월성보성아파트2단지 지하주차장 1층","address":"대구광역시 달서구 학산로7길 27 (월성동, 월성보성아파트2단지)","sido":"대구광역시","sigungu":"달서구","lat":35.830806,"lng":128.53115},{"id":"3470000-S200500041","type":"civildefense","name":"롯데캐슬레이크 지하주차장 1~3층","address":"대구광역시 달서구 상화로58길 86 (도원동, 롯데캐슬레이크)","sido":"대구광역시","sigungu":"달서구","lat":35.8061,"lng":128.54876},{"id":"3470000-S201500001","type":"civildefense","name":"도시철도 감삼역 지하 1~3층","address":"대구광역시 달서구 달구벌대로 지하 1665 (감삼동, 대구지하철2호선 감삼역)","sido":"대구광역시","sigungu":"달서구","lat":35.854213,"lng":128.547349},{"id":"3470000-S199200007","type":"civildefense","name":"월성서한이다음 지하주차장 1층","address":"대구광역시 달서구 학산로 15 (월성동, 월성서한이다음)","sido":"대구광역시","sigungu":"달서구","lat":35.827221,"lng":128.530996},{"id":"3470000-S201600010","type":"civildefense","name":"유림노르웨이 아침아파트 지하1층~지하4층","address":"대구광역시 달서구 구마로 97 (본리동, 유림노르웨이아침)","sido":"대구광역시","sigungu":"달서구","lat":35.837724,"lng":128.538371},{"id":"3470000-S201100020","type":"civildefense","name":"월성동코오롱하늘채1단지 지하1층 지하주차장","address":"대구광역시 달서구 조암남로16길 19 (월성동, 월성코오롱하늘채아파트 1단지)","sido":"대구광역시","sigungu":"달서구","lat":35.821813,"lng":128.523237},{"id":"3470000-S200600047","type":"civildefense","name":"용산파크타운 지하주차장 1층","address":"대구광역시 달서구 용산로 259 (용산동, 용산파크타운)","sido":"대구광역시","sigungu":"달서구","lat":35.860395,"lng":128.529897},{"id":"3470000-S201100009","type":"civildefense","name":"상인 KCC스위첸 지하1층 지하주차장","address":"대구광역시 달서구 월배로39길 26 (상인동, 상인KCC스위첸)","sido":"대구광역시","sigungu":"달서구","lat":35.819989,"lng":128.532872},{"id":"3470000-S199300012","type":"civildefense","name":"대구광역시 도시관리본부 지하1층","address":"대구광역시 달서구 성서공단로 58(대천동)","sido":"대구광역시","sigungu":"달서구","lat":35.83474,"lng":128.48889},{"id":"3470000-S199300047","type":"civildefense","name":"은행아파트 지하1층 주자창","address":"대구광역시 달서구 월곡로 112 (상인동, 은행아파트)","sido":"대구광역시","sigungu":"달서구","lat":35.807473,"lng":128.549476},{"id":"3470000-S199500010","type":"civildefense","name":"보성화성아파트 지하1층 지하주차장","address":"대구광역시 달서구 계대동문로 99 (이곡동, 성서보성화성타운)","sido":"대구광역시","sigungu":"달서구","lat":35.855618,"lng":128.503313},{"id":"3470000-S200600061","type":"civildefense","name":"진천트윈팰리스 지하1층 지하주차장","address":"대구광역시 달서구 월배로 71 (진천동, 진천트윈팰리스)","sido":"대구광역시","sigungu":"달서구","lat":35.81405,"lng":128.52227},{"id":"3470000-S199800019","type":"civildefense","name":"외국어고등학교(기숙사 지하1층)","address":"대구광역시 달서구 선원로11길 21 (신당동, 대구외국어고등학교)","sido":"대구광역시","sigungu":"달서구","lat":35.860278,"lng":128.498566},{"id":"3470000-S201400001","type":"civildefense","name":"한국법무보호복지공단대구경북지부 지하1층","address":"대구광역시 달서구 성서동로 325 (이곡동)","sido":"대구광역시","sigungu":"달서구","lat":35.849766,"lng":128.515688},{"id":"3470000-S200600066","type":"civildefense","name":"대곡우방타운 지하1층 지하주차장","address":"대구광역시 달서구 비슬로538길 22 (대곡동, 대곡우방타운)","sido":"대구광역시","sigungu":"달서구","lat":35.806947,"lng":128.509254},{"id":"3470000-S200600065","type":"civildefense","name":"대곡역 동화타운 지하1층 지하주차장","address":"대구광역시 달서구 상화로 24 (대곡동, 대곡역동화타운)","sido":"대구광역시","sigungu":"달서구","lat":35.809126,"lng":128.517241},{"id":"3470000-S201100025","type":"civildefense","name":"대구월배태영데시앙 지하주차장 1층","address":"대구광역시 달서구 조암남로 123 (대천동, 대구월배태영데시앙)","sido":"대구광역시","sigungu":"달서구","lat":35.818435,"lng":128.520297},{"id":"3470000-S201100008","type":"civildefense","name":"상인역이편한세상2단지 지하1층 지하주차장","address":"대구광역시 달서구 월서로3길 15 (상인동, 상인역e-편한세상2단지)","sido":"대구광역시","sigungu":"달서구","lat":35.81982,"lng":128.534526},{"id":"3470000-S199100016","type":"civildefense","name":"월성동서아파트 지하주차장 1층","address":"대구광역시 달서구 학산로7길 5 (월성동, 월성동서타운)","sido":"대구광역시","sigungu":"달서구","lat":35.829149,"lng":128.532194},{"id":"3470000-S200300014","type":"civildefense","name":"한샘아파트 지하주차장 1층","address":"대구광역시 달서구 선원남로 77 (이곡동, 한샘아파트)","sido":"대구광역시","sigungu":"달서구","lat":35.857405,"lng":128.508837},{"id":"3470000-S201100017","type":"civildefense","name":"월성푸르지오아파트 지하1층 지하주차장","address":"대구광역시 달서구 조암로6길 20 (월성동, 월성푸르지오)","sido":"대구광역시","sigungu":"달서구","lat":35.826734,"lng":128.52565},{"id":"3470000-S200600049","type":"civildefense","name":"용산청구블루빌아파트 지하주차장 1층","address":"대구광역시 달서구 용산로 254 (용산동, 용산블루빌타운)","sido":"대구광역시","sigungu":"달서구","lat":35.860217,"lng":128.531782},{"id":"3470000-S199700010","type":"civildefense","name":"별메마을 지하1층 지하주차장","address":"대구광역시 달서구 도원로 46 (도원동, 별메마을)","sido":"대구광역시","sigungu":"달서구","lat":35.805849,"lng":128.535347},{"id":"3470000-S201600005","type":"civildefense","name":"대곡역화성파크드림 지하주차장 1층","address":"대구광역시 달서구 달서대로 41 (유천동, 대곡역화성파크드림)","sido":"대구광역시","sigungu":"달서구","lat":35.812399,"lng":128.511257},{"id":"3470000-S199800004","type":"civildefense","name":"월성청구아파트 지하1층 지하주차장","address":"대구광역시 달서구 학산로2길 24 (월성동, 월성청구아파트)","sido":"대구광역시","sigungu":"달서구","lat":35.825182,"lng":128.532739},{"id":"3470000-S200600072","type":"civildefense","name":"도시철도 반고개역 지하1층~3층","address":"대구광역시 달서구 달구벌대로 지하1900, 대구지하철2호선 반고개역 (두류동)","sido":"대구광역시","sigungu":"달서구","lat":35.862119,"lng":128.573704},{"id":"3470000-S199300046","type":"civildefense","name":"비둘기아파트1.2단지 지하1층 지하주차장","address":"대구광역시 달서구 상화로 371 (상인동, 상인비둘기1단지아파트)","sido":"대구광역시","sigungu":"달서구","lat":35.809038,"lng":128.554289},{"id":"3470000-S200300004","type":"civildefense","name":"성서3차동서타운 지하주차장 1층","address":"대구광역시 달서구 이곡공원로 49 (이곡동, 성서3차동서타운)","sido":"대구광역시","sigungu":"달서구","lat":35.855417,"lng":128.512928},{"id":"3470000-S199300023","type":"civildefense","name":"상인청구아파트 지하1층 주차장","address":"대구광역시 달서구 상인로 105 (상인동, 상인청구아파트)","sido":"대구광역시","sigungu":"달서구","lat":35.816248,"lng":128.545813},{"id":"3470000-S198300007","type":"civildefense","name":"대구공업대학 도서관 지하 1층","address":"대구광역시 달서구 송현로 205 (본동, 대구공업대학교)","sido":"대구광역시","sigungu":"달서구","lat":35.835773,"lng":128.544541},{"id":"3470000-S197600003","type":"civildefense","name":"상서고등학교 지하주차장 1층","address":"대구광역시 달서구 야외음악당로 107 (성당동, 상서고등학교, 상서중학교)","sido":"대구광역시","sigungu":"달서구","lat":35.847073,"lng":128.551278},{"id":"3470000-S199100050","type":"civildefense","name":"월성우방타운 지하1층 지하주차장","address":"대구광역시 달서구 학산로2길 11 (월성동, 월성우방타운)","sido":"대구광역시","sigungu":"달서구","lat":35.82621,"lng":128.5321},{"id":"3470000-S200600038","type":"civildefense","name":"감삼가든아파트 지하1층 지하주차장","address":"대구광역시 달서구 감삼길 107 (감삼동, 감삼가든아파트)","sido":"대구광역시","sigungu":"달서구","lat":35.850295,"lng":128.543782},{"id":"3470000-S200600060","type":"civildefense","name":"진천역 대우이안아파트 지하1층 지하주차장","address":"대구광역시 달서구 진천로18길 10 (진천동, 진천역대우이안아파트)","sido":"대구광역시","sigungu":"달서구","lat":35.816359,"lng":128.523768},{"id":"3470000-S200600051","type":"civildefense","name":"용산2차서한화성아파트 지하주차장 1층","address":"대구광역시 달서구 용산큰못길 30 (용산동, 용산2차서한화성아파트)","sido":"대구광역시","sigungu":"달서구","lat":35.86024,"lng":128.528523},{"id":"3470000-S199700032","type":"civildefense","name":"지하철송현역 지하1~3층","address":"대구광역시 달서구 월배로 지하 412 (송현동, 대구지하철1호선 송현역)","sido":"대구광역시","sigungu":"달서구","lat":35.831015,"lng":128.551857},{"id":"3470000-S200600041","type":"civildefense","name":"영남네오빌비스타 지하주차장 1층","address":"대구광역시 달서구 대명천로 250 (장기동, 영남네오빌비스타)","sido":"대구광역시","sigungu":"달서구","lat":35.842146,"lng":128.533028},{"id":"3470000-S199700008","type":"civildefense","name":"한실들마을(1차) 지하1층 지하주차장","address":"대구광역시 달서구 한실로 49 (도원동, 한실들마을)","sido":"대구광역시","sigungu":"달서구","lat":35.807938,"lng":128.531994},{"id":"3470000-S199600019","type":"civildefense","name":"KT대구물류센터_구 한국통신대구망(지하1층 기계실)","address":"대구광역시 달서구 선원로 7 (신당동, 한국통신대구망)","sido":"대구광역시","sigungu":"달서구","lat":35.859513,"lng":128.493211},{"id":"3470000-S199700004","type":"civildefense","name":"가람마을(1차) 지하1층 지하주차장","address":"대구광역시 달서구 한실로 135(도원동, 가람마을)","sido":"대구광역시","sigungu":"달서구","lat":35.806558,"lng":128.541289},{"id":"3470000-S201600003","type":"civildefense","name":"진천역 계룡리슈빌 지하1층 지하주차장","address":"대구광역시 달서구 진천로 77 (진천동, 진천역 계룡 리슈빌)","sido":"대구광역시","sigungu":"달서구","lat":35.814939,"lng":128.522091},{"id":"3470000-S199300044","type":"civildefense","name":"제림아파트 지하1층 지하주차장","address":"대구광역시 달서구 상화북로 196 (상인동, 상인제림아파트)","sido":"대구광역시","sigungu":"달서구","lat":35.81323,"lng":128.547154},{"id":"3470000-S199000004","type":"civildefense","name":"대건고등학교 지하1층","address":"대구광역시 달서구 월곡로94길 46, 대건중,고등학교 (월성동)","sido":"대구광역시","sigungu":"달서구","lat":35.834062,"lng":128.527906},{"id":"3470000-S199700007","type":"civildefense","name":"대곡강산타운 지하1~2층 지하주차장","address":"대구광역시 달서구 도원로 45 (도원동, 대곡강산타운)","sido":"대구광역시","sigungu":"달서구","lat":35.805623,"lng":128.535709},{"id":"3470000-S200600058","type":"civildefense","name":"진천세광그린타운 지하1층 지하주차장","address":"대구광역시 달서구 진천로7길 47-0 (진천동, 세광그린타운)","sido":"대구광역시","sigungu":"달서구","lat":35.811202,"lng":128.522723},{"id":"3470000-S200300025","type":"civildefense","name":"용산1차서한화성아파트 지하주차장 1층","address":"대구광역시 달서구 장산로 10 (용산동, 용산1차서한화성타운아파트)","sido":"대구광역시","sigungu":"달서구","lat":35.854211,"lng":128.529637},{"id":"3470000-S200800002","type":"civildefense","name":"우방유쉘(지하1층 주차장)","address":"대구광역시 달서구 달구벌대로 995 (파호동, 성서우방유쉘)","sido":"대구광역시","sigungu":"달서구","lat":35.853931,"lng":128.47663},{"id":"3470000-S202300001","type":"civildefense","name":"월성삼정그린코아에듀파크 지하1~2층 주차장","address":"대구광역시 달서구 월성로 100 (월성동, 월성 삼정그린코아 에듀파크)","sido":"대구광역시","sigungu":"달서구","lat":35.829273,"lng":128.525232},{"id":"3470000-S201400002","type":"civildefense","name":"VPHC(구_평화발레오) 지하1층 구내식당","address":"대구광역시 달서구 성서로 236 (장동, 평화발레오)","sido":"대구광역시","sigungu":"달서구","lat":35.838374,"lng":128.507614},{"id":"3470000-S201100030","type":"civildefense","name":"성당래미안e편한세상2차아파트 지하1층~지하2층","address":"대구광역시 달서구 장기로 145 (본리동, 성당래미안e-편한세상)","sido":"대구광역시","sigungu":"달서구","lat":35.842399,"lng":128.544651},{"id":"3470000-S202100001","type":"civildefense","name":"SS패션(경동어패럴) 지하1층 대피소","address":"대구광역시 달서구 성서서로 230(갈산동)","sido":"대구광역시","sigungu":"달서구","lat":35.845582,"lng":128.499994},{"id":"3470000-S200600059","type":"civildefense","name":"진천청구타운 지하1층 지하주차장","address":"대구광역시 달서구 진천로 41 (진천동, 진천청구타운)","sido":"대구광역시","sigungu":"달서구","lat":35.812437,"lng":128.52483},{"id":"3470000-S200300039","type":"civildefense","name":"한마음타운 101동 앞 지하주차장","address":"대구광역시 달서구 선원남로 151 (용산동, 한마음아파트)","sido":"대구광역시","sigungu":"달서구","lat":35.857277,"lng":128.516772},{"id":"3470000-S199000003","type":"civildefense","name":"효성중학교 지하1층","address":"대구광역시 달서구 월곡로94길 48, 효성중·여자고등학교 (월성동)","sido":"대구광역시","sigungu":"달서구","lat":35.835228,"lng":128.527914},{"id":"3470000-S199700006","type":"civildefense","name":"대곡사계절타운 지하1층 지하주차장","address":"대구광역시 달서구 한실로 117 (도원동, 대곡사계절타운)","sido":"대구광역시","sigungu":"달서구","lat":35.808307,"lng":128.539621},{"id":"3470000-S199200023","type":"civildefense","name":"감삼빌딩 지하1층","address":"대구광역시 달서구 달구벌대로 1680(두류동)","sido":"대구광역시","sigungu":"달서구","lat":35.854604,"lng":128.549798},