[{"id":"4651000-S200300049","type":"civildefense","name":"남양송정아파트(지하 1층)","address":"전북특별자치도 전주시 완산구 용머리로 78 (효자동1가, 남양송정아파트)","sido":"전북특별자치도","sigungu":"전주시","lat":35.805913,"lng":127.118987},{"id":"4661000-S201100007","type":"civildefense","name":"송정써미트 아파트 전체 동의 지하주차장","address":"전북특별자치도 전주시 덕진구 안덕원로 325 (인후동1가, 인후동송정써미트아파트)","sido":"전북특별자치도","sigungu":"전주시","lat":35.83856,"lng":127.162409},{"id":"4651000-S201900002","type":"civildefense","name":"한국전통문화전당(지하주차장 1층)","address":"전북특별자치도 전주시 완산구 현무1길 20 (경원동3가, 한국전통문화센터,한지산업지원센터)","sido":"전북특별자치도","sigungu":"전주시","lat":35.820842,"lng":127.14801},{"id":"4651000-S200000050","type":"civildefense","name":"거성소라아파트 (지하주차장 1층)","address":"전북특별자치도 전주시 완산구 백제대로 160 (효자동1가, 거성소라아파트)","sido":"전북특별자치도","sigungu":"전주시","lat":35.807349,"lng":127.123548},{"id":"4661000-S201000017","type":"civildefense","name":"전북은행 본점(지하주차장 1층)","address":"전북특별자치도 전주시 덕진구 백제대로 566 (금암동)","sido":"전북특별자치도","sigungu":"전주시","lat":35.840152,"lng":127.131719},{"id":"4661000-S202100003","type":"civildefense","name":"에코시티 더샵3차 아파트 (지하주차장 1층, 2층)","address":"전북특별자치도 전주시 덕진구 세병로 136 (송천동2가, 에코시티 더샵3차)","sido":"전북특별자치도","sigungu":"전주시","lat":35.876456,"lng":127.136861},{"id":"4651000-S200300061","type":"civildefense","name":"효자성원아파트(지하주차장 1층)","address":"전북특별자치도 전주시 완산구 거마평로 189-47, 효자성원맨션 (효자동1가, 효자성원맨션)","sido":"전북특별자치도","sigungu":"전주시","lat":35.808332,"lng":127.113297},{"id":"4651000-S201100063","type":"civildefense","name":"동도미소드림아파트 105동뒤(지하주차장 1,2층)","address":"전북특별자치도 전주시 완산구 모악로 4651 (평화동2가)","sido":"전북특별자치도","sigungu":"전주시","lat":35.785555,"lng":127.128175},{"id":"4661000-S200500054","type":"civildefense","name":"우성아파트 가동(지하 1층)","address":"전북특별자치도 전주시 덕진구 견훤로 497 (우아동3가, 우성아파트)","sido":"전북특별자치도","sigungu":"전주시","lat":35.854991,"lng":127.154892},{"id":"4661000-S200500032","type":"civildefense","name":"우정신세계아파트101동(지하1층 기계실)","address":"전북특별자치도 전주시 덕진구 동부대로 575 (우아동3가, 우정신세계)","sido":"전북특별자치도","sigungu":"전주시","lat":35.841414,"lng":127.166762},{"id":"4661000-S201100009","type":"civildefense","name":"위브어울림 아파트 전체 동의 지하주차장","address":"전북특별자치도 전주시 덕진구 견훤로 333 (인후동1가, 위브어울림아파트)","sido":"전북특별자치도","sigungu":"전주시","lat":35.841279,"lng":127.154625},{"id":"4651000-S201700002","type":"civildefense","name":"효자대림아파트 제3주차장 (지하주차장 1층)","address":"전북특별자치도 전주시 완산구 안행2길 26 (효자동1가, 대림아파트)","sido":"전북특별자치도","sigungu":"전주시","lat":35.80205,"lng":127.128691},{"id":"4661000-S200300066","type":"civildefense","name":"제일아파트(지하주차장 1층)","address":"전북특별자치도 전주시 덕진구 송천3길 50 (송천동1가, 제일아파트)","sido":"전북특별자치도","sigungu":"전주시","lat":35.860056,"lng":127.116397},{"id":"4651000-S201100096","type":"civildefense","name":"우성그린아파트 1동 3,4라인(지하 1층)","address":"전북특별자치도 전주시 완산구 솟대로 10(삼천동1가, 우성아파트)","sido":"전북특별자치도","sigungu":"전주시","lat":35.794888,"lng":127.12626},{"id":"4661000-S200500003","type":"civildefense","name":"거성 고속맨션2차 아파트(지하주차장1층)","address":"전북특별자치도 전주시 덕진구 숲정이5길 77 (진북동, 거성고속맨션2차)","sido":"전북특별자치도","sigungu":"전주시","lat":35.833829,"lng":127.127891},{"id":"4661000-S200700010","type":"civildefense","name":"여의동제일아파트(지하1층101~103/103~105)","address":"전북특별자치도 전주시 덕진구 쪽구름로 19 (여의동, 제일아파트)","sido":"전북특별자치도","sigungu":"전주시","lat":35.867479,"lng":127.078465},{"id":"4651000-S200600005","type":"civildefense","name":"우성해오름아파트(104동 지하주차장 1층)","address":"전북특별자치도 전주시 완산구 인봉남로 56 (중노송동, 우성해오름아파트)","sido":"전북특별자치도","sigungu":"전주시","lat":35.826003,"lng":127.159136},{"id":"4661000-S200300065","type":"civildefense","name":"서호1차아파트(지하주차장 1층)","address":"전북특별자치도 전주시 덕진구 송천로 31 (송천동1가, 송천서호1차아파트)","sido":"전북특별자치도","sigungu":"전주시","lat":35.855941,"lng":127.118735},{"id":"4661000-S201100010","type":"civildefense","name":"팔복동코스타빌아파트(지하주차장 1층)","address":"전북특별자치도 전주시 덕진구 추천1길 6-0 (팔복동2가, 코스타빌아파트)","sido":"전북특별자치도","sigungu":"전주시","lat":35.848155,"lng":127.105534},{"id":"4651000-S201700004","type":"civildefense","name":"이안전주삼천아파트(지하주차장 1~3층 )","address":"전북특별자치도 전주시 완산구 용리로 165 (삼천동1가, 이안전주삼천)","sido":"전북특별자치도","sigungu":"전주시","lat":35.798174,"lng":127.126749},{"id":"4651000-S200300039","type":"civildefense","name":"제일아파트(지하 1층)","address":"전북특별자치도 전주시 완산구 신봉로 52 (효자동1가, 제일아파트)","sido":"전북특별자치도","sigungu":"전주시","lat":35.810025,"lng":127.120521},{"id":"4651000-S200000044","type":"civildefense","name":"성원아파트(지하주차장1층)","address":"전북특별자치도 전주시 완산구 서신천변11길 20 (서신동, 성원아파트)","sido":"전북특별자치도","sigungu":"전주시","lat":35.830295,"lng":127.112036},{"id":"4651000-S200400001","type":"civildefense","name":"한벽문화관(지하주차장 1층)","address":"전북특별자치도 전주시 완산구 전주천동로 20 (교동)","sido":"전북특별자치도","sigungu":"전주시","lat":35.812277,"lng":127.159584},{"id":"4661000-S200500084","type":"civildefense","name":"대창아파트(지하주차장 1~2층)","address":"전북특별자치도 전주시 덕진구 반월4길 15 (반월동, 대창아파트)","sido":"전북특별자치도","sigungu":"전주시","lat":35.875243,"lng":127.071818},{"id":"4651000-S201100072","type":"civildefense","name":"평화주공그린2차 207동앞(지하주차장 1층)","address":"전북특별자치도 전주시 완산구 평화로 100 (평화동2가)","sido":"전북특별자치도","sigungu":"전주시","lat":35.786001,"lng":127.134221},{"id":"4661000-S201100002","type":"civildefense","name":"영무예다음아파트(지하주차장 1층)","address":"전북특별자치도 전주시 덕진구 가련산로 24 (덕진동2가, 영무예다음아파트)","sido":"전북특별자치도","sigungu":"전주시","lat":35.840831,"lng":127.112023},{"id":"4651000-S200000048","type":"civildefense","name":"중흥아파트(지하주차장 1층)","address":"전북특별자치도 전주시 완산구 새터로 74 (서신동, 중흥아파트)","sido":"전북특별자치도","sigungu":"전주시","lat":35.835453,"lng":127.114664},{"id":"4651000-S199900017","type":"civildefense","name":"안행현대아파트 주차장(지하주차장 1층)","address":"전북특별자치도 전주시 완산구 안행2길 14 (삼천동1가, 안행현대아파트)","sido":"전북특별자치도","sigungu":"전주시","lat":35.801321,"lng":127.129648},{"id":"4651000-S200700004","type":"civildefense","name":"현대아파트(평화2동)(지하주차장 1층)","address":"전북특별자치도 전주시 완산구 소대배기로 33 (평화동2가)","sido":"전북특별자치도","sigungu":"전주시","lat":35.787114,"lng":127.133216},{"id":"4661000-S201000020","type":"civildefense","name":"한화생명(지하 1층)","address":"전북특별자치도 전주시 덕진구 기린대로 405 (금암동, 한화생명빌딩)","sido":"전북특별자치도","sigungu":"전주시","lat":35.837872,"lng":127.131449},{"id":"4651000-S200000015","type":"civildefense","name":"신세계블루타운(지하주차장 1층)","address":"전북특별자치도 전주시 완산구 흑석로 64 (서서학동, 신세계블루타운아파트)","sido":"전북특별자치도","sigungu":"전주시","lat":35.798669,"lng":127.150058},{"id":"4651000-S201700001","type":"civildefense","name":"국립무형유산원(지하주차장 1층)","address":"전북특별자치도 전주시 완산구 서학로 95 (동서학동, 국립무형유산원)","sido":"전북특별자치도","sigungu":"전주시","lat":35.809862,"lng":127.159649},{"id":"4661000-S200500087","type":"civildefense","name":"명성아파트(지하1층)","address":"전북특별자치도 전주시 덕진구 동부대로 1553 (고랑동)","sido":"전북특별자치도","sigungu":"전주시","lat":35.877048,"lng":127.078071},{"id":"4661000-S201200001","type":"civildefense","name":"동국해성아파트 103동, 107동(지하주차장1층)","address":"전북특별자치도 전주시 덕진구 진북로 15 (진북동, 동국해성아파트)","sido":"전북특별자치도","sigungu":"전주시","lat":35.826606,"lng":127.134152},{"id":"4661000-S200500028","type":"civildefense","name":"부영5차아파트(지하주차장 1층)","address":"전북특별자치도 전주시 덕진구 한배미로 33 (인후동1가, 부영5차아파트)","sido":"전북특별자치도","sigungu":"전주시","lat":35.8243,"lng":127.168429},{"id":"4651000-S200700007","type":"civildefense","name":"코오롱아파트7동앞(지하주차장 1층)","address":"전북특별자치도 전주시 완산구 평화로 181 (평화동1가)","sido":"전북특별자치도","sigungu":"전주시","lat":35.792889,"lng":127.136256},{"id":"4661000-S200500029","type":"civildefense","name":"아중마을아남아파트(지하주차장 1층)","address":"전북특별자치도 전주시 덕진구 한배미로 5 (인후동1가, 아중아남아파트)","sido":"전북특별자치도","sigungu":"전주시","lat":35.825773,"lng":127.166591},{"id":"4661000-S200500005","type":"civildefense","name":"거성프라자 아파트 전체 동의 지하주차장","address":"전북특별자치도 전주시 덕진구 팽나무4길 7 (인후동1가, 거성프라자아파트)","sido":"전북특별자치도","sigungu":"전주시","lat":35.835971,"lng":127.155094},{"id":"4651000-S200700001","type":"civildefense","name":"동신2단지아파트(115동앞)(지하주차장 1,2층)","address":"전북특별자치도 전주시 완산구 양지2길 52-7, 115동 (평화동2가)","sido":"전북특별자치도","sigungu":"전주시","lat":35.791199,"lng":127.12039},{"id":"4651000-S201100028","type":"civildefense","name":"전주태평SK뷰아파트(지하주차장1~2층)","address":"전북특별자치도 전주시 완산구 태평2길 22 (태평동)","sido":"전북특별자치도","sigungu":"전주시","lat":35.823743,"lng":127.140004},{"id":"4661000-S200500025","type":"civildefense","name":"부영1차아파트(지하주차장 1층)","address":"전북특별자치도 전주시 덕진구 진버들3길 10 (인후동1가, 부영1차아파트)","sido":"전북특별자치도","sigungu":"전주시","lat":35.834898,"lng":127.162063},{"id":"4661000-S200500082","type":"civildefense","name":"삼오아파트(지하주차장 1층)","address":"전북특별자치도 전주시 덕진구 반월5길 8 (반월동, 삼오아파트)","sido":"전북특별자치도","sigungu":"전주시","lat":35.873261,"lng":127.068987},{"id":"4661000-S201000024","type":"civildefense","name":"송천동진흥더블파크아파트 (지하주차장 1층)","address":"전북특별자치도 전주시 덕진구 천마산로 100 (송천동1가, 진흥더블파크아파트)","sido":"전북특별자치도","sigungu":"전주시","lat":35.864912,"lng":127.132265},{"id":"4651000-S201100065","type":"civildefense","name":"동아현대아파트 101동앞(지하주차장 1층)","address":"전북특별자치도 전주시 완산구 맏내3길 22 (평화동2가)","sido":"전북특별자치도","sigungu":"전주시","lat":35.792534,"lng":127.129874},{"id":"4661000-S199700002","type":"civildefense","name":"호성주공아파트(지하1층 주차장)","address":"전북특별자치도 전주시 덕진구 소리로 179 (호성동1가, 주공아파트)","sido":"전북특별자치도","sigungu":"전주시","lat":35.857727,"lng":127.151636},{"id":"4651000-S201100076","type":"civildefense","name":"호반리젠시빌 103동앞(지하주차장 1층)","address":"전북특별자치도 전주시 완산구 평화로 95 (평화동2가)","sido":"전북특별자치도","sigungu":"전주시","lat":35.785292,"lng":127.13373},{"id":"4651000-S201100068","type":"civildefense","name":"평화주공그린1차 107동앞(지하주차장 1층)","address":"전북특별자치도 전주시 완산구 구이로 2094 (평화동2가)","sido":"전북특별자치도","sigungu":"전주시","lat":35.784842,"lng":127.131076},{"id":"4651000-S200000016","type":"civildefense","name":"대승푸른맨션(지하주차장 1층)","address":"전북특별자치도 전주시 완산구 흑석로 53 (서서학동, 푸른맨션아파트)","sido":"전북특별자치도","sigungu":"전주시","lat":35.799373,"lng":127.150647},{"id":"4651000-S201100069","type":"civildefense","name":"평화주공그린1차 110동앞(지하주차장 1층)","address":"전북특별자치도 전주시 완산구 구이로 2094 (평화동2가)","sido":"전북특별자치도","sigungu":"전주시","lat":35.784842,"lng":127.131076},{"id":"4661000-S201700006","type":"civildefense","name":"인후동에버파크아파트(지하주차장)","address":"전북특별자치도 전주시 덕진구 심방죽6길 8 (인후동2가, 에버파크아파트)","sido":"전북특별자치도","sigungu":"전주시","lat":35.840947,"lng":127.150922},{"id":"4651000-S199300005","type":"civildefense","name":"기린봉아파트(지하주차장 1~2층)","address":"전북특별자치도 전주시 완산구 견훤로 100 (중노송동)","sido":"전북특별자치도","sigungu":"전주시","lat":35.820761,"lng":127.162595},{"id":"4661000-S201000028","type":"civildefense","name":"선변오지오아파트 101동(지하1층 주차장)","address":"전북특별자치도 전주시 덕진구 석소2길 30 (우아동2가, 오지오아파트)","sido":"전북특별자치도","sigungu":"전주시","lat":35.835502,"lng":127.168832},{"id":"4651000-S201100057","type":"civildefense","name":"동신1단지아파트(108동앞)(지하주차장 1,2층)","address":"전북특별자치도 전주시 완산구 양지2길 10, 108동 (평화동2가)","sido":"전북특별자치도","sigungu":"전주시","lat":35.79234,"lng":127.123056},{"id":"4651000-S200000020","type":"civildefense","name":"효성흑석마을아파트(지하주차장 1층)","address":"전북특별자치도 전주시 완산구 흑석1길 85 (서서학동, 흑석마을아파트)","sido":"전북특별자치도","sigungu":"전주시","lat":35.798307,"lng":127.149203},{"id":"4651000-S201100049","type":"civildefense","name":"현대에코르아파트 (지하주차장 1층)","address":"전북특별자치도 전주시 완산구 화산천변로 50 (중화산동2가)","sido":"전북특별자치도","sigungu":"전주시","lat":35.8243,"lng":127.116061},{"id":"4661000-S200500035","type":"civildefense","name":"진흥하이츠아파트 101동(지하1층 주차장)","address":"전북특별자치도 전주시 덕진구 안덕원1길 30 (우아동3가, 진흥하이츠)","sido":"전북특별자치도","sigungu":"전주시","lat":35.840931,"lng":127.165406},{"id":"4661000-S200300068","type":"civildefense","name":"쌍용2차아파트(지하주차장 1층)","address":"전북특별자치도 전주시 덕진구 와룡로 50 (송천동2가)","sido":"전북특별자치도","sigungu":"전주시","lat":35.863702,"lng":127.112128},{"id":"4651000-S201100029","type":"civildefense","name":"라한호텔(지하주차장 1~3층)","address":"전북특별자치도 전주시 완산구 기린대로 85 (풍남동3가)","sido":"전북특별자치도","sigungu":"전주시","lat":35.816744,"lng":127.154364},{"id":"4651000-S200000002","type":"civildefense","name":"진흥하이츠아파트(지하주차장 1층)","address":"전북특별자치도 전주시 완산구 학봉2길 11 (동서학동)","sido":"전북특별자치도","sigungu":"전주시","lat":35.8061,"lng":127.154612},{"id":"4651000-S200000023","type":"civildefense","name":"흥건삼천2차아파트(지하주차장 1층)","address":"전북특별자치도 전주시 완산구 삼천천변1길 45 (삼천동1가, 흥건2차아파트)","sido":"전북특별자치도","sigungu":"전주시","lat":35.795225,"lng":127.115779},{"id":"4651000-S201100038","type":"civildefense","name":"영창맨션(나동 지하공간 1층)","address":"전북특별자치도 전주시 완산구 장승배기8길 13 (서서학동, 영창공원맨션)","sido":"전북특별자치도","sigungu":"전주시","lat":35.803317,"lng":127.146619},{"id":"4661000-S200500065","type":"civildefense","name":"전주덕진예술회관(지하 1층)","address":"전북특별자치도 전주시 덕진구 권삼득로 407 (덕진동2가, 전주덕진예술회관)","sido":"전북특별자치도","sigungu":"전주시","lat":35.848344,"lng":127.119575},{"id":"4651000-S201100034","type":"civildefense","name":"대아산성아파트(지하주차장 1층)","address":"전북특별자치도 전주시 완산구 남고산성1길 37-0 (동서학동)","sido":"전북특별자치도","sigungu":"전주시","lat":35.804531,"lng":127.156244},{"id":"4651000-S201100052","type":"civildefense","name":"우성중산타운(지하주차장 1층)","address":"전북특별자치도 전주시 완산구 신촌3길 1-0 (중화산동2가)","sido":"전북특별자치도","sigungu":"전주시","lat":35.816938,"lng":127.117642},{"id":"4661000-S200500027","type":"civildefense","name":"부영3차아파트(지하주차장 1층)","address":"전북특별자치도 전주시 덕진구 아중로 180 (인후동1가, 부영3차아파트)","sido":"전북특별자치도","sigungu":"전주시","lat":35.826871,"lng":127.168919},{"id":"4661000-S202100002","type":"civildefense","name":"에코시티 더샵2차 아파트 (지하주차장 1층)","address":"전북특별자치도 전주시 덕진구 세병로 175 (송천동2가, 에코시티더샵2차)","sido":"전북특별자치도","sigungu":"전주시","lat":35.878555,"lng":127.132999},{"id":"4661000-S201700010","type":"civildefense","name":"혁신우미린1차아파트(지하주차장 1층)","address":"전북특별자치도 전주시 덕진구 오공로 70 (중동, 우미린1단지)","sido":"전북특별자치도","sigungu":"전주시","lat":35.835775,"lng":127.063133},{"id":"4661000-S201000012","type":"civildefense","name":"센트럴파크2단지아파트(지하주차장 1~2층)","address":"전북특별자치도 전주시 덕진구 호반로 11 (송천동1가, 송천동센트럴파크2단지아파트)","sido":"전북특별자치도","sigungu":"전주시","lat":35.853191,"lng":127.117353},{"id":"4661000-S200500050","type":"civildefense","name":"럭키아파트 7동(지하주차장 1층)","address":"전북특별자치도 전주시 덕진구 안덕원3길 10 (우아동3가, 럭키아파트)","sido":"전북특별자치도","sigungu":"전주시","lat":35.843477,"lng":127.164258},{"id":"4661000-S200500034","type":"civildefense","name":"우정신세계아파트103동(지하1층 기계실)","address":"전북특별자치도 전주시 덕진구 동부대로 575 (우아동3가, 우정신세계)","sido":"전북특별자치도","sigungu":"전주시","lat":35.841414,"lng":127.166762},{"id":"4661000-S200300069","type":"civildefense","name":"솔내동아아파트(지하주차장 2층)","address":"전북특별자치도 전주시 덕진구 와룡2길 5 (송천동2가, 동아아파트)","sido":"전북특별자치도","sigungu":"전주시","lat":35.86606,"lng":127.113339},{"id":"4651000-S202400001","type":"civildefense","name":"힐스테이트 어울림효자아파트(지하1층)","address":"전북특별자치도 전주시 완산구 용머리로 135 (효자동1가, 힐스테이트 어울림 효자)","sido":"전북특별자치도","sigungu":"전주시","lat":35.807599,"lng":127.126219},{"id":"4651000-S200300017","type":"civildefense","name":"서도프라자(지하주차장 1~2층)","address":"전북특별자치도 전주시 완산구 용머리로 36 (효자동1가, 서도프라자)","sido":"전북특별자치도","sigungu":"전주시","lat":35.805771,"lng":127.114281},{"id":"4651000-S200600003","type":"civildefense","name":"효자남양i좋은집(지하주차장 1층)","address":"전북특별자치도 전주시 완산구 강변로 242 (효자동1가, 남양아이좋은집아파트)","sido":"전북특별자치도","sigungu":"전주시","lat":35.811733,"lng":127.112352},{"id":"4661000-S199500003","type":"civildefense","name":"전북대학교병원(지하2층주차장)","address":"전북특별자치도 전주시 덕진구 건지로 20 (금암동, 전북대학교병원)","sido":"전북특별자치도","sigungu":"전주시","lat":35.845738,"lng":127.142064},{"id":"4661000-S201100015","type":"civildefense","name":"다경일신아파트(지하1층 주차장)","address":"전북특별자치도 전주시 덕진구 호성1길 8-9 (호성동1가, 다경마을일신아파트)","sido":"전북특별자치도","sigungu":"전주시","lat":35.856406,"lng":127.155118},{"id":"4651000-S201100091","type":"civildefense","name":"광진궁전아파트 1동 (지하공간 1층)","address":"전북특별자치도 전주시 완산구 장승배기로 145 (삼천동1가)","sido":"전북특별자치도","sigungu":"전주시","lat":35.794899,"lng":127.128884},{"id":"4651000-S199500001","type":"civildefense","name":"두일하나아파트(지하주차장 1층)","address":"전북특별자치도 전주시 완산구 장승배기로 50 (삼천동1가, 두일하나아파트)","sido":"전북특별자치도","sigungu":"전주시","lat":35.791987,"lng":127.11855},{"id":"4661000-S200500051","type":"civildefense","name":"우신아파트 1동(지하 1층)","address":"전북특별자치도 전주시 덕진구 견훤로 495 (우아동3가, 우신아파트)","sido":"전북특별자치도","sigungu":"전주시","lat":35.854786,"lng":127.15512},{"id":"4651000-S200700005","type":"civildefense","name":"코오롱아파트 12동앞(지하주차장 1,2층)","address":"전북특별자치도 전주시 완산구 평화로 181 (평화동1가)","sido":"전북특별자치도","sigungu":"전주시","lat":35.792889,"lng":127.136256},{"id":"4651000-S201100055","type":"civildefense","name":"효성양지임대아파트 (지하주차장 1층)","address":"전북특별자치도 전주시 완산구 장승배기3길 8 (평화동1가, 효성양지아파트)","sido":"전북특별자치도","sigungu":"전주시","lat":35.800159,"lng":127.14311},{"id":"4651000-S199600004","type":"civildefense","name":"평화1동지하보도(지하 1층)","address":"전북특별자치도 전주시 완산구 장승배기로 256 (평화동1가, 평화1동주민센터)","sido":"전북특별자치도","sigungu":"전주시","lat":35.798148,"lng":127.140293},{"id":"4661000-S200500086","type":"civildefense","name":"백우동산아파트(지하1층)","address":"전북특별자치도 전주시 덕진구 편운로 37 (여의동2가, 백우2차아파트)","sido":"전북특별자치도","sigungu":"전주시","lat":35.872639,"lng":127.079907},{"id":"4661000-S200500004","type":"civildefense","name":"우성아파트105동, 110동, 120동(지하주차장1층)","address":"전북특별자치도 전주시 덕진구 태진로 101 (진북동, 우성아파트)","sido":"전북특별자치도","sigungu":"전주시","lat":35.830202,"lng":127.135866},{"id":"4661000-S200500055","type":"civildefense","name":"우성아파트 나동(지하 1층)","address":"전북특별자치도 전주시 덕진구 견훤로 497 (우아동3가, 우성아파트)","sido":"전북특별자치도","sigungu":"전주시","lat":35.854991,"lng":127.154892},{"id":"4651000-S201100074","type":"civildefense","name":"평화주공그린2차 209동앞(지하주차장 1층)","address":"전북특별자치도 전주시 완산구 평화로 100 (평화동2가)","sido":"전북특별자치도","sigungu":"전주시","lat":35.786001,"lng":127.134221},{"id":"4651000-S201600001","type":"civildefense","name":"동방아로채2단지아파트 (지하주차장 2층)","address":"전북특별자치도 전주시 완산구 효동3길 17-5 (효자동1가, 동방아로채2단지)","sido":"전북특별자치도","sigungu":"전주시","lat":35.805203,"lng":127.129556},{"id":"4651000-S201100112","type":"civildefense","name":"효자1차엘드수목토아파트(지하주차장 1층)","address":"전북특별자치도 전주시 완산구 세내로 241 (효자동2가, 효자1차엘드수목토아파트)","sido":"전북특별자치도","sigungu":"전주시","lat":35.811884,"lng":127.109744},{"id":"4661000-S200500088","type":"civildefense","name":"대승아파트(1차, 2차 각 지하 1층)","address":"전북특별자치도 전주시 덕진구 덕용1길 58 (여의동2가, 대승아파트)","sido":"전북특별자치도","sigungu":"전주시","lat":35.871541,"lng":127.081887},{"id":"4651000-S201100097","type":"civildefense","name":"한신휴플러스아파트 (지하주차장 1층)","address":"전북특별자치도 전주시 완산구 따박골4길 10 (효자동1가, 효자동 한신휴플러스)","sido":"전북특별자치도","sigungu":"전주시","lat":35.806631,"lng":127.126691},{"id":"4651000-S201100120","type":"civildefense","name":"서곡주공아파트(지하주차장1층)","address":"전북특별자치도 전주시 완산구 서곡로 8 (효자동3가, 서곡주공아파트)","sido":"전북특별자치도","sigungu":"전주시","lat":35.832352,"lng":127.096599},{"id":"4651000-S201100098","type":"civildefense","name":"효자뷰티빌(지하주차장 1층)","address":"전북특별자치도 전주시 완산구 거마평로 217 (효자동1가, 뷰티빌)","sido":"전북특별자치도","sigungu":"전주시","lat":35.811693,"lng":127.114173},{"id":"4651000-S200300042","type":"civildefense","name":"비사벌아파트(효자2동)(지하 1층)","address":"전북특별자치도 전주시 완산구 서원로 258 (효자동1가, 비사벌아파트)","sido":"전북특별자치도","sigungu":"전주시","lat":35.812024,"lng":127.122672},{"id":"4651000-S200000059","type":"civildefense","name":"영동고덕아파트 B동(지하주차장 1층)","address":"전북특별자치도 전주시 완산구 고덕산2길 9 (대성동, 영동고덕아파트)","sido":"전북특별자치도","sigungu":"전주시","lat":35.798416,"lng":127.178848},{"id":"4661000-S201100004","type":"civildefense","name":"선변 아파트 전체 동의 지하주차장","address":"전북특별자치도 전주시 덕진구 심방죽로 16 (인후동1가, 인후동선변아파트)","sido":"전북특별자치도","sigungu":"전주시","lat":35.83735,"lng":127.150969},{"id":"4651000-S201100041","type":"civildefense","name":"우정아파트(지하주차장 1층)","address":"전북특별자치도 전주시 완산구 흑석로 65 (서서학동, 우정아파트 상가)","sido":"전북특별자치도","sigungu":"전주시","lat":35.798473,"lng":127.150153},{"id":"4661000-S201700008","type":"civildefense","name":"호반베르디움더클래스아파트(지하주차장 1층)","address":"전북특별자치도 전주시 덕진구 출판로 87 (장동, 호반베르디움더클래스)","sido":"전북특별자치도","sigungu":"전주시","lat":35.839827,"lng":127.062359},{"id":"4651000-S201100128","type":"civildefense","name":"광진햇빛찬1차아파트(지하주차장 1층)","address":"전북특별자치도 전주시 완산구 강변로 306 (중화산동2가, 광진햇빛찬아파트)","sido":"전북특별자치도","sigungu":"전주시","lat":35.817207,"lng":127.114907},{"id":"4661000-S201000027","type":"civildefense","name":"아중롯데아파트 105동(지하1층 주차장)","address":"전북특별자치도 전주시 덕진구 중상보로 10 (우아동2가, 롯데아파트)","sido":"전북특별자치도","sigungu":"전주시","lat":35.832255,"lng":127.168308},{"id":"4661000-S200500089","type":"civildefense","name":"동국아파트(지하 1층, 106동 지하 1층 별도)","address":"전북특별자치도 전주시 덕진구 쪽구름로 53 (여의동, 동국아파트)","sido":"전북특별자치도","sigungu":"전주시","lat":35.870212,"lng":127.07601},{"id":"4651000-S200300047","type":"civildefense","name":"성원골드아파트(지하 1층)","address":"전북특별자치도 전주시 완산구 신봉로 74 (효자동1가, 성원골드맨션아파트)","sido":"전북특별자치도","sigungu":"전주시","lat":35.809298,"lng":127.12272},{"id":"4661000-S200500053","type":"civildefense","name":"우신아파트 3동(지하 1층)","address":"전북특별자치도 전주시 덕진구 견훤로 495 (우아동3가, 우신아파트)","sido":"전북특별자치도","sigungu":"전주시","lat":35.854786,"lng":127.15512},{"id":"4651000-S201100023","type":"civildefense","name":"서신광장지하보도(KT전북본부앞)_지하1층","address":"전북특별자치도 전주시 완산구 온고을로 29 (서신동)","sido":"전북특별자치도","sigungu":"전주시","lat":35.833364,"lng":127.119998},{"id":"4651000-S201100126","type":"civildefense","name":"전주중화산풍림아이원(지하주차장 1~2층)","address":"전북특별자치도 전주시 완산구 서원로 289 (중화산동2가, 중화산풍림아이원아파트)","sido":"전북특별자치도","sigungu":"전주시","lat":35.812394,"lng":127.12621},{"id":"4661000-S200500060","type":"civildefense","name":"신동아3차아파트(지하1층)","address":"전북특별자치도 전주시 덕진구 호성로 18-12 (우아동3가, 신동아아파트)","sido":"전북특별자치도","sigungu":"전주시","lat":35.854619,"lng":127.153086},{"id":"4651000-S201100115","type":"civildefense","name":"풍림아이원아파트(지하주차장 1층)","address":"전북특별자치도 전주시 완산구 우전1길 40 (효자동2가, 풍림아이원아파트)","sido":"전북특별자치도","sigungu":"전주시","lat":35.807282,"lng":127.106342},{"id":"4651000-S201100021","type":"civildefense","name":"서신도서관(지하주차장 1층)","address":"전북특별자치도 전주시 완산구 서신천변14길 10 (서신동, 서신복합문화센터(도서관,서신주민센터))","sido":"전북특별자치도","sigungu":"전주시","lat":35.831109,"lng":127.115285},{"id":"4651000-S201100105","type":"civildefense","name":"효자휴먼시아1단지아파트(107동 쪽 지하주차장 1층)","address":"전북특별자치도 전주시 완산구 호암로 2 (효자동2가, 효자휴먼시아1단지아파트)","sido":"전북특별자치도","sigungu":"전주시","lat":35.808768,"lng":127.096459},{"id":"4661000-S201100012","type":"civildefense","name":"전북경제통상진흥원(지하주차장 1층)","address":"전북특별자치도 전주시 덕진구 팔과정로 164-0 (팔복동1가, 전북특별자치도경제통상진흥원)","sido":"전북특별자치도","sigungu":"전주시","lat":35.861213,"lng":127.094736},{"id":"4651000-S200600001","type":"civildefense","name":"전북도청 (지하주차장 1층)","address":"전북특별자치도 전주시 완산구 효자로 225 (효자동3가)","sido":"전북특별자치도","sigungu":"전주시","lat":35.819233,"lng":127.11047},{"id":"4651000-S199000002","type":"civildefense","name":"전주시립완산도서관(지하 1층)","address":"전북특별자치도 전주시 완산구 곤지산4길 12 (동완산동, 전주시립도서관)","sido":"전북특별자치도","sigungu":"전주시","lat":35.809451,"lng":127.147711},{"id":"4651000-S200300050","type":"civildefense","name":"남양효자아파트(지하 1층)","address":"전북특별자치도 전주시 완산구 용머리로 68 (효자동1가, 남양효자맨션아파트)","sido":"전북특별자치도","sigungu":"전주시","lat":35.805767,"lng":127.117942},{"id":"4651000-S201100085","type":"civildefense","name":"KT전북본부(지하주차장 1~3층)","address":"전북특별자치도 전주시 완산구 온고을로 29 (서신동, KT빌딩)","sido":"전북특별자치도","sigungu":"전주시","lat":35.833364,"lng":127.119998},{"id":"4661000-S200300070","type":"civildefense","name":"영창드림맨션아파트 (지하주차장 1층)","address":"전북특별자치도 전주시 덕진구 솔내6길 7 (송천동1가, 영창드림맨션아파트)","sido":"전북특별자치도","sigungu":"전주시","lat":35.858966,"lng":127.122054},{"id":"4651000-S201000007","type":"civildefense","name":"서부신시가지 아이파크아파트 (지하주차장 1층)","address":"전북특별자치도 전주시 완산구 홍산로 390 (효자동3가, 서부신시가지아이파크아파트)","sido":"전북특별자치도","sigungu":"전주시","lat":35.828586,"lng":127.107006},{"id":"4661000-S198200002","type":"civildefense","name":"전북특별자치도 소상공인희망센터(지하1층)","address":"전북특별자치도 전주시 덕진구 기린대로 945-6 (여의동)","sido":"전북특별자치도","sigungu":"전주시","lat":35.864224,"lng":127.081529},{"id":"4651000-S201100086","type":"civildefense","name":"롯데백화점전주점(지하주차장 1~4층)","address":"전북특별자치도 전주시 완산구 온고을로 2 (서신동, 롯데백화점)","sido":"전북특별자치도","sigungu":"전주시","lat":35.834207,"lng":127.122041},{"id":"4661000-S201000014","type":"civildefense","name":"덕진구청(지하주차장1층)","address":"전북특별자치도 전주시 덕진구 벚꽃로 55 (진북동, 덕진구청)","sido":"전북특별자치도","sigungu":"전주시","lat":35.82908,"lng":127.134407},{"id":"4661000-S202100006","type":"civildefense","name":"한국국토정보공사(지하주차장 1층)","address":"전북특별자치도 전주시 덕진구 기지로 120, 한국국토정보공사 본사 (중동)","sido":"전북특별자치도","sigungu":"전주시","lat":35.837968,"lng":127.065576},{"id":"4661000-S199500006","type":"civildefense","name":"LG동아아파트(지하1층 주차장)","address":"전북특별자치도 전주시 덕진구 호성로 40 (호성동1가, LG동아아파트)","sido":"전북특별자치도","sigungu":"전주시","lat":35.855062,"lng":127.151358},{"id":"4661000-S200500044","type":"civildefense","name":"럭키아파트 3동(지하주차장 1층)","address":"전북특별자치도 전주시 덕진구 안덕원3길 10 (우아동3가, 럭키아파트)","sido":"전북특별자치도","sigungu":"전주시","lat":35.843477,"lng":127.164258},{"id":"4651000-S200300007","type":"civildefense","name":"앤씨웨이브(지하주차장 2~3층)","address":"전북특별자치도 전주시 완산구 전주객사5길 35 (고사동)","sido":"전북특별자치도","sigungu":"전주시","lat":35.819715,"lng":127.145183},{"id":"4651000-S201100099","type":"civildefense","name":"전북지방경찰청 (지하주차장 1층)","address":"전북특별자치도 전주시 완산구 유연로 180 (효자동3가, 전북지방경찰청)","sido":"전북특별자치도","sigungu":"전주시","lat":35.824301,"lng":127.105047},{"id":"4661000-S201700009","type":"civildefense","name":"우미린2차아파트(지하주차장 1층)","address":"전북특별자치도 전주시 덕진구 틀못4길 17 (장동, 우미린2단지)","sido":"전북특별자치도","sigungu":"전주시","lat":35.844605,"lng":127.058355},{"id":"4651000-S201700003","type":"civildefense","name":"효자대림아파트 제5주차장 (지하주차장 1층)","address":"전북특별자치도 전주시 완산구 안행2길 26 (효자동1가, 대림아파트)","sido":"전북특별자치도","sigungu":"전주시","lat":35.80205,"lng":127.128691},{"id":"4651000-S201100031","type":"civildefense","name":"오페라하우스아파트(지하주차장 1층)","address":"전북특별자치도 전주시 완산구 안행로 150 (서완산동2가, 전주오페라하우스)","sido":"전북특별자치도","sigungu":"전주시","lat":35.809696,"lng":127.133176},{"id":"4661000-S202000004","type":"civildefense","name":"전주지방검찰청(지하1층)","address":"전북특별자치도 전주시 덕진구 가인로 11, 전주지방검찰청 (만성동)","sido":"전북특별자치도","sigungu":"전주시","lat":35.84284,"lng":127.072351},{"id":"4661000-S201100016","type":"civildefense","name":"진흥더블파크3단지아파트(지하1층 주차장)","address":"전북특별자치도 전주시 덕진구 호성로 170 (호성동2가, 진흥더블파크3단지아파트)","sido":"전북특별자치도","sigungu":"전주시","lat":35.865419,"lng":127.144335},{"id":"4661000-S201000010","type":"civildefense","name":"장동에코르아파트(지하1층)","address":"전북특별자치도 전주시 덕진구 정암길 19 (장동)","sido":"전북특별자치도","sigungu":"전주시","lat":35.861307,"lng":127.060178},{"id":"4661000-S200600011","type":"civildefense","name":"팔복동 남양아파트(지하주차장 1층)","address":"전북특별자치도 전주시 덕진구 팔복1길 6-0 (팔복동2가, 남양아파트)","sido":"전북특별자치도","sigungu":"전주시","lat":35.848151,"lng":127.103483},{"id":"4661000-S201100011","type":"civildefense","name":"팔복거성아파트(지하 1층)","address":"전북특별자치도 전주시 덕진구 신복5길 18 (팔복동1가, 팔복거성아파트)","sido":"전북특별자치도","sigungu":"전주시","lat":35.85463,"lng":127.106001},{"id":"4651000-S202100001","type":"civildefense","name":"전주효천우미린더프레스티지(208동 쪽 지하주차장 1층)","address":"전북특별자치도 전주시 완산구 홍산로 77 (효자동2가, 전주효천우미린더프레스티지)","sido":"전북특별자치도","sigungu":"전주시","lat":35.801544,"lng":127.105717},{"id":"4661000-S201000019","type":"civildefense","name":"교보생명(지하 1층)","address":"전북특별자치도 전주시 덕진구 기린대로 389 (금암동)","sido":"전북특별자치도","sigungu":"전주시","lat":35.836918,"lng":127.132691},{"id":"4651000-S201000004","type":"civildefense","name":"전라북도 교육청(지하주차장 1층)","address":"전북특별자치도 전주시 완산구 홍산로 111 (효자동2가, 전북특별자치도교육청)","sido":"전북특별자치도","sigungu":"전주시","lat":35.804174,"lng":127.102796},{"id":"4651000-S201100056","type":"civildefense","name":"지안리즈아파트 (지하주차장 1층)","address":"전북특별자치도 전주시 완산구 덕적골2길 66 (평화동1가, 평화지안리즈아파트)","sido":"전북특별자치도","sigungu":"전주시","lat":35.792784,"lng":127.141437},{"id":"4661000-S200500030","type":"civildefense","name":"제일2차아파트(지하주차장 1층)","address":"전북특별자치도 전주시 덕진구 아중로 170 (인후동1가, 아중제일2차아파트)","sido":"전북특별자치도","sigungu":"전주시","lat":35.826608,"lng":127.168209},{"id":"4661000-S201100005","type":"civildefense","name":"하누리홈타운 전체 동의 지하주차장","address":"전북특별자치도 전주시 덕진구 팽나무4길 21 (인후동1가, 하누리홈타운)","sido":"전북특별자치도","sigungu":"전주시","lat":35.834923,"lng":127.155044},{"id":"4651000-S200300041","type":"civildefense","name":"한양운남아파트(지하 1층)","address":"전북특별자치도 전주시 완산구 신봉로 71 (효자동1가, 한양운남아파트)","sido":"전북특별자치도","sigungu":"전주시","lat":35.809449,"lng":127.122477},{"id":"4651000-S200300040","type":"civildefense","name":"신일아파트(지하 1층)","address":"전북특별자치도 전주시 완산구 신봉로 51 (효자동1가, 신일아파트)","sido":"전북특별자치도","sigungu":"전주시","lat":35.810178,"lng":127.120593},{"id":"4661000-S201700005","type":"civildefense","name":"건지산이지움아파트(지하주차장)","address":"전북특별자치도 전주시 덕진구 백동2길 11 (인후동2가)","sido":"전북특별자치도","sigungu":"전주시","lat":35.846269,"lng":127.147834},{"id":"4651000-S200000026","type":"civildefense","name":"영동고덕아파트 A동(지하주차장 1층)","address":"전북특별자치도 전주시 완산구 고덕산2길 9, A동 (대성동, 영동고덕아파트)","sido":"전북특별자치도","sigungu":"전주시","lat":35.798416,"lng":127.178848},{"id":"4651000-S201100022","type":"civildefense","name":"서신지하보도(교원공제앞)_지하1층","address":"전북특별자치도 전주시 완산구 온고을로 1 (서신동)","sido":"전북특별자치도","sigungu":"전주시","lat":35.833429,"lng":127.122291},{"id":"4651000-S201100061","type":"civildefense","name":"동도미소드림아파트 103동뒤(지하주차장 1,2층)","address":"전북특별자치도 전주시 완산구 모악로 4651 (평화동2가)","sido":"전북특별자치도","sigungu":"전주시","lat":35.785555,"lng":127.128175},{"id":"4661000-S201100001","type":"civildefense","name":"덕진지하보도(지하 1층)","address":"전북특별자치도 전주시 덕진구 기린대로 472 (덕진동1가)","sido":"전북특별자치도","sigungu":"전주시","lat":35.842138,"lng":127.126275},{"id":"4661000-S202000003","type":"civildefense","name":"전주지방법원(지하1층)","address":"전북특별자치도 전주시 덕진구 가인로 33, 전주지방법원 (만성동)","sido":"전북특별자치도","sigungu":"전주시","lat":35.842571,"lng":127.074746},{"id":"4651000-S200300079","type":"civildefense","name":"대풍한마을아파트(지하주차장 1층)","address":"전북특별자치도 전주시 완산구 따박골7길 22 (서완산동2가, 대풍한마을아파트)","sido":"전북특별자치도","sigungu":"전주시","lat":35.808778,"lng":127.130354},{"id":"4651000-S200000019","type":"civildefense","name":"광진산업아파트(103동 지하공간 1층)","address":"전북특별자치도 전주시 완산구 덕적골3길 17 (서서학동, 광진산업아파트)","sido":"전북특별자치도","sigungu":"전주시","lat":35.798441,"lng":127.145135},{"id":"4661000-S201100003","type":"civildefense","name":"덕진동 휴먼빌아파트(지하주차장 1층)","address":"전북특별자치도 전주시 덕진구 가리내로 216 (덕진동2가, 하가휴먼빌아파트)","sido":"전북특별자치도","sigungu":"전주시","lat":35.83909,"lng":127.113727},{"id":"4651000-S200300021","type":"civildefense","name":"대우빌딩(지하 1층)","address":"전북특별자치도 전주시 완산구 기린대로 213 (서노송동, 대우빌딩)","sido":"전북특별자치도","sigungu":"전주시","lat":35.82578,"lng":127.146506},{"id":"4661000-S200500052","type":"civildefense","name":"우신아파트 2동(지하 1층)","address":"전북특별자치도 전주시 덕진구 견훤로 495 (우아동3가, 우신아파트)","sido":"전북특별자치도","sigungu":"전주시","lat":35.854786,"lng":127.15512},{"id":"4651000-S200300005","type":"civildefense","name":"성원오피스텔(지하주차장1~3층)","address":"전북특별자치도 전주시 완산구 풍남문4길 25-26 (중앙동4가)","sido":"전북특별자치도","sigungu":"전주시","lat":35.814722,"lng":127.144624},{"id":"4661000-S201000015","type":"civildefense","name":"아중지하보도(지하보도 1층)","address":"전북특별자치도 전주시 덕진구 아중로 152 (인후동1가)","sido":"전북특별자치도","sigungu":"전주시","lat":35.825879,"lng":127.166119},{"id":"4661000-S200300073","type":"civildefense","name":"송천동 현대2차아파트 (지하주차장 1층)","address":"전북특별자치도 전주시 덕진구 솔내로 124 (송천동1가, 현대2차아파트)","sido":"전북특별자치도","sigungu":"전주시","lat":35.861238,"lng":127.126865},{"id":"4651000-S199600005","type":"civildefense","name":"한성아파트 (지하주차장 1층)","address":"전북특별자치도 전주시 완산구 덕적골1길 33 (평화동1가, 한성아파트)","sido":"전북특별자치도","sigungu":"전주시","lat":35.794459,"lng":127.139871},{"id":"4651000-S199800003","type":"civildefense","name":"삼천동남양아파트(지하주차장 1층)","address":"전북특별자치도 전주시 완산구 삼천천변1길 32 (삼천동1가)","sido":"전북특별자치도","sigungu":"전주시","lat":35.795053,"lng":127.114131},{"id":"4661000-S200500033","type":"civildefense","name":"우정신세계아파트102동(지하1층 기계실)","address":"전북특별자치도 전주시 덕진구 동부대로 575 (우아동3가, 우정신세계)","sido":"전북특별자치도","sigungu":"전주시","lat":35.841414,"lng":127.166762},{"id":"4651000-S200200005","type":"civildefense","name":"호반리젠시빌아파트(지하주차장 1층)","address":"전북특별자치도 전주시 완산구 삼천천변3길 20 (삼천동1가)","sido":"전북특별자치도","sigungu":"전주시","lat":35.797925,"lng":127.111627},{"id":"4651000-S199700003","type":"civildefense","name":"일성아파트(지하주차장 1층)","address":"전북특별자치도 전주시 완산구 평화19길 20 (평화동1가, 일성아파트)","sido":"전북특별자치도","sigungu":"전주시","lat":35.79506,"lng":127.138763},{"id":"4661000-S201800002","type":"civildefense","name":"에코시티데시앙5블럭아파트 (지하주차장 1~2층)","address":"전북특별자치도 전주시 덕진구 세병로 85 (송천동2가, 에코시티데시앙5블럭)","sido":"전북특별자치도","sigungu":"전주시","lat":35.872367,"lng":127.133432},{"id":"4661000-S201100008","type":"civildefense","name":"한신휴플러스 아파트 전체 동의 지하주차장","address":"전북특별자치도 전주시 덕진구 안덕원로 251 (인후동1가, 한신휴플러스아파트)","sido":"전북특별자치도","sigungu":"전주시","lat":35.836818,"lng":127.154322},{"id":"4661000-S200500056","type":"civildefense","name":"우성아파트 다동(지하 1층)","address":"전북특별자치도 전주시 덕진구 견훤로 497 (우아동3가, 우성아파트)","sido":"전북특별자치도","sigungu":"전주시","lat":35.854991,"lng":127.154892},{"id":"4651000-S201100110","type":"civildefense","name":"효자휴먼시아5단지아파트(504동 쪽 지하주차장 1층)","address":"전북특별자치도 전주시 완산구 호암로 87 (효자동2가, 효자휴먼시아5단지아파트)","sido":"전북특별자치도","sigungu":"전주시","lat":35.809677,"lng":127.103286},{"id":"4661000-S200500039","type":"civildefense","name":"진버들대우2차아파트 203동(지하1층 주차장)","address":"전북특별자치도 전주시 덕진구 진버들5길 10 (우아동2가, 진버들대우아파트)","sido":"전북특별자치도","sigungu":"전주시","lat":35.836106,"lng":127.165916},{"id":"4651000-S200000045","type":"civildefense","name":"현대아파트(서신동)_지하주차장 1층","address":"전북특별자치도 전주시 완산구 서신로 90 (서신동, 현대아파트)","sido":"전북특별자치도","sigungu":"전주시","lat":35.833275,"lng":127.11607},{"id":"4651000-S200300052","type":"civildefense","name":"대우청솔아파트(지하 1층)","address":"전북특별자치도 전주시 완산구 오두정길 10 (효자동1가, 대우청솔아파트)","sido":"전북특별자치도","sigungu":"전주시","lat":35.807088,"lng":127.119998},{"id":"4651000-S201100087","type":"civildefense","name":"신세계이마트전주점(지하주차장 1층)","address":"전북특별자치도 전주시 완산구 당산로 111 (서신동, E마트)","sido":"전북특별자치도","sigungu":"전주시","lat":35.832323,"lng":127.120225},{"id":"4651000-S200700008","type":"civildefense","name":"우미아파트(지하주차장 1층)","address":"전북특별자치도 전주시 완산구 모악로 4685 (평화동2가)","sido":"전북특별자치도","sigungu":"전주시","lat":35.787928,"lng":127.129975},{"id":"4661000-S200600008","type":"civildefense","name":"조촌동 영무예다음아파트(지하주차장 1층)","address":"전북특별자치도 전주시 덕진구 반월4길 16 (반월동, 영무예다음아파트)","sido":"전북특별자치도","sigungu":"전주시","lat":35.875377,"lng":127.071983},{"id":"4651000-S200000049","type":"civildefense","name":"남양황실아파트 (지하주차장 1층)","address":"전북특별자치도 전주시 완산구 따박골로 8 (효자동1가, 남양황실아파트)","sido":"전북특별자치도","sigungu":"전주시","lat":35.809333,"lng":127.123929},{"id":"4651000-S200700009","type":"civildefense","name":"송정써미트아파트(지하주차장 1층)","address":"전북특별자치도 전주시 완산구 평화7길 40 (평화동2가)","sido":"전북특별자치도","sigungu":"전주시","lat":35.786218,"lng":127.138398},{"id":"4661000-S200500031","type":"civildefense","name":"안고을우성아파트(지하주차장 1층)","address":"전북특별자치도 전주시 덕진구 진버들2길 14 (인후동1가, 안고을우성아파트)","sido":"전북특별자치도","sigungu":"전주시","lat":35.835873,"lng":127.159248},{"id":"4651000-S201100083","type":"civildefense","name":"교원공제전북지부(지하주차장 1~4층)","address":"전북특별자치도 전주시 완산구 온고을로 1 (서신동, 한국교직원공제회전북회관)","sido":"전북특별자치도","sigungu":"전주시","lat":35.833429,"lng":127.122291},{"id":"4651000-S201100045","type":"civildefense","name":"옥성트레비앙아파트(지하주차장 1층)","address":"전북특별자치도 전주시 완산구 서원로 348 (중화산동1가, 옥성트레비앙아파트)","sido":"전북특별자치도","sigungu":"전주시","lat":35.812883,"lng":127.132496},{"id":"4661000-S201100017","type":"civildefense","name":"중앙하이츠아파트(지하주차장 1층)","address":"전북특별자치도 전주시 덕진구 거북바우3길 15 (금암동, 중앙하이츠아파트)","sido":"전북특별자치도","sigungu":"전주시","lat":35.837824,"lng":127.139088},{"id":"4651000-S200300080","type":"civildefense","name":"한강아파트(효자3동)(지하주차장 1층)","address":"전북특별자치도 전주시 완산구 강변로 120 (효자동1가, 한강아파트)","sido":"전북특별자치도","sigungu":"전주시","lat":35.80165,"lng":127.112346},{"id":"4651000-S201100032","type":"civildefense","name":"완산교회(지하 1층)","address":"전북특별자치도 전주시 완산구 전주천서로 181 (서완산동1가, 전주완산교회)","sido":"전북특별자치도","sigungu":"전주시","lat":35.812006,"lng":127.141609},{"id":"4661000-S202100005","type":"civildefense","name":"전라북도체육회관(지하주차장 1층)","address":"전북특별자치도 전주시 덕진구 들사평로 62, 전북특별자치도체육회관 (덕진동1가)","sido":"전북특별자치도","sigungu":"전주시","lat":35.840958,"lng":127.125916},{"id":"4661000-S201100006","type":"civildefense","name":"인후휴먼시아 아파트 전체 동의 지하주차장","address":"전북특별자치도 전주시 덕진구 팽나무2길 7 (인후동1가, 인후휴먼시아)","sido":"전북특별자치도","sigungu":"전주시","lat":35.835625,"lng":127.151427},{"id":"4661000-S200500036","type":"civildefense","name":"아중롯데아파트 102동(지하1층 주차장)","address":"전북특별자치도 전주시 덕진구 중상보로 10 (우아동2가, 롯데아파트)","sido":"전북특별자치도","sigungu":"전주시","lat":35.832255,"lng":127.168308},{"id":"4661000-S200500019","type":"civildefense","name":"광주지방노동청 전주지청(지하주차장 1층)","address":"전북특별자치도 전주시 덕진구 건산로 251 (인후동1가, 광주지방노동청전주지청)","sido":"전북특별자치도","sigungu":"전주시","lat":35.835349,"lng":127.164429},{"id":"4661000-S201900001","type":"civildefense","name":"e편한세상 우아아파트(지하주차장 1~2층)","address":"전북특별자치도 전주시 덕진구 우아로 50 (우아동3가, e편한세상우아아파트)","sido":"전북특별자치도","sigungu":"전주시","lat":35.85205,"lng":127.156165},{"id":"4661000-S200500021","type":"civildefense","name":"아중현대아파트(지하주차장 1층)","address":"전북특별자치도 전주시 덕진구 석소로 55 (인후동1가, 아중현대아파트)","sido":"전북특별자치도","sigungu":"전주시","lat":35.83222,"lng":127.167637},{"id":"4661000-S200500083","type":"civildefense","name":"한강아파트(지하주차장 1층)","address":"전북특별자치도 전주시 덕진구 쪽구름로 133 (반월동, 반월동한강아파트)","sido":"전북특별자치도","sigungu":"전주시","lat":35.873829,"lng":127.07076},{"id":"4651000-S199900016","type":"civildefense","name":"금호청솔아파트 주차장(지하주차장 1층)","address":"전북특별자치도 전주시 완산구 안행5길 11 (삼천동1가, 금호청솔아파트)","sido":"전북특별자치도","sigungu":"전주시","lat":35.802134,"lng":127.132332},{"id":"4651000-S201800001","type":"civildefense","name":"오네뜨아파트 (지하주차장 1층)","address":"전북특별자치도 전주시 완산구 덕적골1길 50 (평화동1가, 평화동오네뜨아파트)","sido":"전북특별자치도","sigungu":"전주시","lat":35.793954,"lng":127.140087},{"id":"4661000-S200300067","type":"civildefense","name":"쌍용1차아파트(지하주차장 1층)","address":"전북특별자치도 전주시 덕진구 와룡로 40 (송천동2가)","sido":"전북특별자치도","sigungu":"전주시","lat":35.86271,"lng":127.112168},{"id":"4651000-S200300002","type":"civildefense","name":"하나증권(지하주차장 1층)","address":"전북특별자치도 전주시 완산구 팔달로 229 (고사동)","sido":"전북특별자치도","sigungu":"전주시","lat":35.822655,"lng":127.145149},{"id":"4651000-S201100070","type":"civildefense","name":"평화주공그린2차 201동앞(지하주차장 1층)","address":"전북특별자치도 전주시 완산구 평화로 100 (평화동2가)","sido":"전북특별자치도","sigungu":"전주시","lat":35.786001,"lng":127.134221},{"id":"4661000-S200500037","type":"civildefense","name":"아중롯데아파트 103동(지하1층 주차장)","address":"전북특별자치도 전주시 덕진구 중상보로 10 (우아동2가, 롯데아파트)","sido":"전북특별자치도","sigungu":"전주시","lat":35.832255,"lng":127.168308},{"id":"4661000-S199800001","type":"civildefense","name":"타이어뱅크(뱅크빌딩)(지하주차장1~3층)","address":"전북특별자치도 전주시 덕진구 백제대로 751 (인후동2가)","sido":"전북특별자치도","sigungu":"전주시","lat":35.846678,"lng":127.150745},{"id":"4661000-S200600009","type":"civildefense","name":"진흥더블파크1단지아파트(지하1층 주차장)","address":"전북특별자치도 전주시 덕진구 호성로 132 (호성동1가, 진흥더블파크1단지아파트)","sido":"전북특별자치도","sigungu":"전주시","lat":35.863308,"lng":127.147764},{"id":"4661000-S200500038","type":"civildefense","name":"진버들대우2차아파트 202동(지하1층 주차장)","address":"전북특별자치도 전주시 덕진구 진버들5길 10 (우아동2가, 진버들대우아파트)","sido":"전북특별자치도","sigungu":"전주시","lat":35.836106,"lng":127.165916},{"id":"4651000-S199100001","type":"civildefense","name":"우성아파트 지하주차장(1층)","address":"전북특별자치도 전주시 완산구 백제대로 13 (삼천동1가)","sido":"전북특별자치도","sigungu":"전주시","lat":35.796369,"lng":127.131446},{"id":"4651000-S201100025","type":"civildefense","name":"완산구청(지하 1층)","address":"전북특별자치도 전주시 완산구 서원로 232 (효자동1가, 완산구청)","sido":"전북특별자치도","sigungu":"전주시","lat":35.812292,"lng":127.119799},{"id":"4661000-S202100007","type":"civildefense","name":"전주혁신도시 중흥에스클래스 아파트(지하주차장 1~2층)","address":"전북특별자치도 전주시 덕진구 틀못3길 16 (장동, 중흥S-클래스)","sido":"전북특별자치도","sigungu":"전주시","lat":35.842428,"lng":127.055629},{"id":"4661000-S202100004","type":"civildefense","name":"하가더루벤스아파트(지하주차장 1층)","address":"전북특별자치도 전주시 덕진구 추탄로 61 (덕진동2가, THE RUBENS)","sido":"전북특별자치도","sigungu":"전주시","lat":35.846094,"lng":127.108683},{"id":"4651000-S201100077","type":"civildefense","name":"경복궁아파트 101동앞(지하주차장 1층)","address":"전북특별자치도 전주시 완산구 평화로 120 (평화동2가)","sido":"전북특별자치도","sigungu":"전주시","lat":35.787453,"lng":127.134959},{"id":"4661000-S200500057","type":"civildefense","name":"효성임대아파트(지하주차장 1층)","address":"전북특별자치도 전주시 덕진구 안골5길 15 (우아동3가, 우아효성아파트)","sido":"전북특별자치도","sigungu":"전주시","lat":35.843009,"lng":127.155983},{"id":"4651000-S201100078","type":"civildefense","name":"미송평화하이존101동앞(지하주차장 1층)","address":"전북특별자치도 전주시 완산구 모악로 4681 (평화동2가)","sido":"전북특별자치도","sigungu":"전주시","lat":35.787315,"lng":127.129248},{"id":"4651000-S199700008","type":"civildefense","name":"삼천하이츠 아파트(지하주차장 1층)","address":"전북특별자치도 전주시 완산구 강변로 106 (삼천동1가, 삼천하이츠)","sido":"전북특별자치도","sigungu":"전주시","lat":35.800569,"lng":127.11152},{"id":"4661000-S200500040","type":"civildefense","name":"전주역 지하도 (지하 1층)","address":"전북특별자치도 전주시 덕진구 동부대로 680 (우아동3가, 전주역)","sido":"전북특별자치도","sigungu":"전주시","lat":35.849407,"lng":127.160659},{"id":"4651000-S200300038","type":"civildefense","name":"남양황제아파트(지하 1층)","address":"전북특별자치도 전주시 완산구 백제대로 159 (효자동1가, 남양황제아파트)","sido":"전북특별자치도","sigungu":"전주시","lat":35.807193,"lng":127.122735},{"id":"4661000-S200300074","type":"civildefense","name":"송천주공아파트 (지하주차장 1층)","address":"전북특별자치도 전주시 덕진구 붓내3길 29 (송천동2가, 주공아파트)","sido":"전북특별자치도","sigungu":"전주시","lat":35.866731,"lng":127.124579},{"id":"4651000-S201000008","type":"civildefense","name":"세창짜임아파트(지하주차장 1층)","address":"전북특별자치도 전주시 완산구 용리로 179 (삼천동1가, 세창짜임아파트)","sido":"전북특별자치도","sigungu":"전주시","lat":35.798898,"lng":127.128108},{"id":"4651000-S200300054","type":"civildefense","name":"전주시청(지하 1층)","address":"전북특별자치도 전주시 완산구 노송광장로 10 (서노송동)","sido":"전북특별자치도","sigungu":"전주시","lat":35.823981,"lng":127.147772},{"id":"4661000-S201000013","type":"civildefense","name":"송천동자이아파트(지하주차장 1층)","address":"전북특별자치도 전주시 덕진구 두간6길 10 (송천동1가, GS자이)","sido":"전북특별자치도","sigungu":"전주시","lat":35.866104,"lng":127.118073},{"id":"4671000-S200300027","type":"civildefense","name":"동아아파트 지하주차장 1층","address":"전북특별자치도 군산시 동아로 160 (소룡동, 동아아파트)","sido":"전북특별자치도","sigungu":"군산시","lat":35.969273,"lng":126.684542},{"id":"4671000-S200200013","type":"civildefense","name":"조촌현대아파트 제2지하주차장 1층","address":"전북특별자치도 군산시 양안로 120 (조촌동, 현대아파트)","sido":"전북특별자치도","sigungu":"군산시","lat":35.972972,"lng":126.743947},{"id":"4671000-S201000012","type":"civildefense","name":"현대한솔아파트 지하주차장 1~2층","address":"전북특별자치도 군산시 번영로 159 (조촌동, 현대한솔아파트)","sido":"전북특별자치도","sigungu":"군산시","lat":35.9654,"lng":126.736515},{"id":"4671000-S200300002","type":"civildefense","name":"부향하나로아파트101동 지하주차장 1층","address":"전북특별자치도 군산시 경촌1길 55 (경암동, 경암동부향하나로아파트)","sido":"전북특별자치도","sigungu":"군산시","lat":35.980545,"lng":126.73365},{"id":"4671000-S200200006","type":"civildefense","name":"세풍아파트 제1지하주차장 1층","address":"전북특별자치도 군산시 영명길 6 (구암동, 세풍아파트)","sido":"전북특별자치도","sigungu":"군산시","lat":35.984158,"lng":126.742899},{"id":"4671000-S201000009","type":"civildefense","name":"은파 코아루 아파트 지하주차장 1층","address":"전북특별자치도 군산시 동지곡길 53 (지곡동, 은파코아루아파트)","sido":"전북특별자치도","sigungu":"군산시","lat":35.95512,"lng":126.706934},{"id":"4671000-S201200002","type":"civildefense","name":"타워써미트아파트 지하주차장 1층","address":"전북특별자치도 군산시 공단대로 54 (조촌동, 타워써미트)","sido":"전북특별자치도","sigungu":"군산시","lat":35.961177,"lng":126.735746},{"id":"4671000-S201100004","type":"civildefense","name":"금광베네스타 아파트 지하주차장 1층","address":"전북특별자치도 군산시 용둔길 12 (미룡동, 금광베네스타)","sido":"전북특별자치도","sigungu":"군산시","lat":35.942441,"lng":126.693315},{"id":"4671000-S201000008","type":"civildefense","name":"미장 코아루 아파트 지하주차장 1층","address":"전북특별자치도 군산시 미장안길 42 (미장동, 미장코아루아파트)","sido":"전북특별자치도","sigungu":"군산시","lat":35.967776,"lng":126.72676},{"id":"4671000-S200300089","type":"civildefense","name":"현대오솔아파트 지하주차장 1층","address":"전북특별자치도 군산시 월명로 496 (월명동, 현대오솔아파트)","sido":"전북특별자치도","sigungu":"군산시","lat":35.98496,"lng":126.707086},{"id":"4671000-S200300060","type":"civildefense","name":"삼학대우아파트 지하주차장 1층","address":"전북특별자치도 군산시 축동로 188 (삼학동, 군산삼학대우아파트)","sido":"전북특별자치도","sigungu":"군산시","lat":35.976007,"lng":126.70967},{"id":"4671000-S202300006","type":"civildefense","name":"수송현대아파트 B지하주차장 지하1층","address":"전북특별자치도 군산시 진포1길 10 (수송동, 현대아파트)","sido":"전북특별자치도","sigungu":"군산시","lat":35.970508,"lng":126.71658},{"id":"4671000-S201200001","type":"civildefense","name":"현대 메트로타워 아파트 지하주차장 1층","address":"전북특별자치도 군산시 대명길 3 (대명동, 현대메트로타워)","sido":"전북특별자치도","sigungu":"군산시","lat":35.977967,"lng":126.722277},{"id":"4671000-S201700002","type":"civildefense","name":"희망루아파트 지하주차장 1층","address":"전북특별자치도 군산시 월명로 584(해망동, 희망루)","sido":"전북특별자치도","sigungu":"군산시","lat":35.987748,"lng":126.697878},{"id":"4671000-S200400002","type":"civildefense","name":"소룡동  성원 상떼빌 지하주차장 1층","address":"전북특별자치도 군산시 해망로 447 (소룡동, 군산성원아파트)","sido":"전북특별자치도","sigungu":"군산시","lat":35.985919,"lng":126.692795},{"id":"4671000-S200300091","type":"civildefense","name":"나운 대우아파트 지하주차장 1층","address":"전북특별자치도 군산시 의료원로 136 (나운동, 대우아파트)","sido":"전북특별자치도","sigungu":"군산시","lat":35.95809,"lng":126.701351},{"id":"4671000-S201900001","type":"civildefense","name":"군산 디오션시티 푸르지오 지하주차장 1층","address":"전북특별자치도 군산시 궁포2로 20 (조촌동, 군산디오션시티푸르지오)","sido":"전북특별자치도","sigungu":"군산시","lat":35.979865,"lng":126.739844},{"id":"4671000-S200300053","type":"civildefense","name":"군산소방서 지하식당","address":"전북특별자치도 군산시 번영로 308 (사정동, 군산소방서)","sido":"전북특별자치도","sigungu":"군산시","lat":35.962932,"lng":126.751017},{"id":"4671000-S201100002","type":"civildefense","name":"보람더하임아파트 지하주차장 1층","address":"전북특별자치도 군산시 하신3길 7 (나운동, 나운동 보람더하임)","sido":"전북특별자치도","sigungu":"군산시","lat":35.970641,"lng":126.69944},{"id":"4671000-S201000006","type":"civildefense","name":"삼성 쉐르빌 아파트 지하주차장 1층","address":"전북특별자치도 군산시 경포천로 66 (미장동, 수송공원삼성쉐르빌)","sido":"전북특별자치도","sigungu":"군산시","lat":35.965346,"lng":126.723048},{"id":"4671000-S200300039","type":"civildefense","name":"교보생명 지하주차장 1~3층","address":"전북특별자치도 군산시 대학로 35 (중앙로1가, 교보생명)","sido":"전북특별자치도","sigungu":"군산시","lat":35.98654,"lng":126.711625},{"id":"4671000-S200300101","type":"civildefense","name":"한울아파트 지하주차장 1층","address":"전북특별자치도 군산시 하나운로 20 (나운동, 한울아파트)","sido":"전북특별자치도","sigungu":"군산시","lat":35.960666,"lng":126.69953},{"id":"4671000-S200300092","type":"civildefense","name":"나운 동신아파트 지하주차장 1층","address":"전북특별자치도 군산시 백토로 216 (나운동, 동신아파트)","sido":"전북특별자치도","sigungu":"군산시","lat":35.959982,"lng":126.704593},{"id":"4671000-S200300048","type":"civildefense","name":"금광삼성아파트 지하","address":"전북특별자치도 군산시 대학로 114-1 (금광동, 삼성아파트)","sido":"전북특별자치도","sigungu":"군산시","lat":35.980834,"lng":126.70661},{"id":"4671000-S200300013","type":"civildefense","name":"한화생명 지하주차장 1층","address":"전북특별자치도 군산시 대학로 331 (나운동, 한화생명빌딩)","sido":"전북특별자치도","sigungu":"군산시","lat":35.964199,"lng":126.694067},{"id":"4671000-S200300093","type":"civildefense","name":"롯데4차아파트 지하주차장 1층","address":"전북특별자치도 군산시 백토로 242 (나운동, 롯데아파트)","sido":"전북특별자치도","sigungu":"군산시","lat":35.957686,"lng":126.703909},{"id":"4671000-S200300080","type":"civildefense","name":"나운 삼성아파트 지하주차장 1층","address":"전북특별자치도 군산시 나운3길 9 (나운동)","sido":"전북특별자치도","sigungu":"군산시","lat":35.965267,"lng":126.700307},{"id":"4671000-S201000005","type":"civildefense","name":"수송 세영리첼 아파트 지하주차장 1층","address":"전북특별자치도 군산시 수송동로 100 (수송동, 군산수송세영리첼아파트)","sido":"전북특별자치도","sigungu":"군산시","lat":35.968407,"lng":126.719813},{"id":"4671000-S201000004","type":"civildefense","name":"수송 아이파크 아파트 지하주차장 1층","address":"전북특별자치도 군산시 수송동로 91 (수송동, 수송아이파크)","sido":"전북특별자치도","sigungu":"군산시","lat":35.967635,"lng":126.719397},{"id":"4671000-S200800001","type":"civildefense","name":"나운3차현대아파트 지하주차장 1층","address":"전북특별자치도 군산시 나운안2길 8 (나운동)","sido":"전북특별자치도","sigungu":"군산시","lat":35.968071,"lng":126.704848},{"id":"4671000-S200300062","type":"civildefense","name":"현대세솔아파트 지하주차장 1층","address":"전북특별자치도 군산시 풍문2길 35 (장재동, 현대세솔아파트)","sido":"전북특별자치도","sigungu":"군산시","lat":35.978586,"lng":126.71954},{"id":"4671000-S200200004","type":"civildefense","name":"구암동 현대아파트 2차 지하주차장 1층","address":"전북특별자치도 군산시 서당길 11 (구암동, 현대아파트)","sido":"전북특별자치도","sigungu":"군산시","lat":35.97904,"lng":126.751478},{"id":"4671000-S200300095","type":"civildefense","name":"나운 청솔아파트 지하주차장 1~3층","address":"전북특별자치도 군산시 나운로 133 (나운동, 나운동청솔아파트)","sido":"전북특별자치도","sigungu":"군산시","lat":35.961678,"lng":126.696151},{"id":"4671000-S201000011","type":"civildefense","name":"오르빌아파트 지하주차장 1층","address":"전북특별자치도 군산시 번영로 86 (경장동, 오르빌아파트)","sido":"전북특별자치도","sigungu":"군산시","lat":35.969931,"lng":126.730447},{"id":"4671000-S200300032","type":"civildefense","name":"신도시아파트 지하주차장 1층","address":"전북특별자치도 군산시 풍전6길 16 (소룡동, 신도시아파트)","sido":"전북특별자치도","sigungu":"군산시","lat":35.976007,"lng":126.677038},{"id":"4671000-S200700001","type":"civildefense","name":"에듀힐아파트 지하주차장 1층","address":"전북특별자치도 군산시 동흥남길 9 (동흥남동)","sido":"전북특별자치도","sigungu":"군산시","lat":35.974496,"lng":126.719239},{"id":"4671000-S200300070","type":"civildefense","name":"금호 2차아파트 지하주차장 1층","address":"전북특별자치도 군산시 두란뜸2길 8 (사정동, 금호타운2단지)","sido":"전북특별자치도","sigungu":"군산시","lat":35.964428,"lng":126.750907},{"id":"4671000-S200200014","type":"civildefense","name":"조촌현대아파트 제3지하주차장 1층","address":"전북특별자치도 군산시 양안로 120 (조촌동, 현대아파트)","sido":"전북특별자치도","sigungu":"군산시","lat":35.972972,"lng":126.743947},{"id":"4671000-S200300094","type":"civildefense","name":"미룡 그린빌 아파트 3단지 지하주차장 1층","address":"전북특별자치도 군산시 미룡로 42 (미룡동, 미룡주공3차아파트)","sido":"전북특별자치도","sigungu":"군산시","lat":35.943666,"lng":126.690057},{"id":"4671000-S200200016","type":"civildefense","name":"조촌현대아파트 제5지하주차장 1층","address":"전북특별자치도 군산시 양안로 120 (조촌동, 현대아파트)","sido":"전북특별자치도","sigungu":"군산시","lat":35.972972,"lng":126.743947},{"id":"4671000-S202300003","type":"civildefense","name":"내흥7LH아파트 지하주차장 1층","address":"전북특별자치도 군산시 돌끝로 52(내흥동)","sido":"전북특별자치도","sigungu":"군산시","lat":35.996306,"lng":126.757046},{"id":"4671000-S202300005","type":"civildefense","name":"수송현대아파트 A지하주차장 지하1층","address":"전북특별자치도 군산시 진포1길 10 (수송동, 현대아파트)","sido":"전북특별자치도","sigungu":"군산시","lat":35.970508,"lng":126.71658},{"id":"4671000-S200500005","type":"civildefense","name":"삼학주공아파트 지하주차장 1층","address":"전북특별자치도 군산시 미원로 61 (삼학동, 군산삼학주공아파트)","sido":"전북특별자치도","sigungu":"군산시","lat":35.978359,"lng":126.711743},{"id":"4671000-S201600002","type":"civildefense","name":"군산시청 지하주차장 1층","address":"전북특별자치도 군산시 시청로 17 (조촌동, 군산시청)","sido":"전북특별자치도","sigungu":"군산시","lat":35.966899,"lng":126.736879},{"id":"4671000-S202100001","type":"civildefense","name":"대야보라무지개아파트 지하주차장 1층","address":"전북특별자치도 군산시 대야면 수림로 7-10 (대야보라무지개아파트)","sido":"전북특별자치도","sigungu":"군산시","lat":35.948983,"lng":126.821185},{"id":"4671000-S200200003","type":"civildefense","name":"구암동 현대아파트 1차 지하주차장 1층","address":"전북특별자치도 군산시 서당길 11 (구암동, 현대아파트)","sido":"전북특별자치도","sigungu":"군산시","lat":35.97904,"lng":126.751478},{"id":"4671000-S200300096","type":"civildefense","name":"영창아파트 지하주차장 1층","address":"전북특별자치도 군산시 의료원로 137 (나운동, 영창아파트)","sido":"전북특별자치도","sigungu":"군산시","lat":35.957969,"lng":126.701061},{"id":"4671000-S201000010","type":"civildefense","name":"수송금호어울림아파트 지상주차장 1층","address":"전북특별자치도 군산시 서수송2길 23 (나운동)","sido":"전북특별자치도","sigungu":"군산시","lat":35.965731,"lng":126.70839},{"id":"4671000-S201100001","type":"civildefense","name":"조촌세경아파트 지하주차장 1층","address":"전북특별자치도 군산시 양안로 123 (조촌동, 세경아파트)","sido":"전북특별자치도","sigungu":"군산시","lat":35.973567,"lng":126.743617},{"id":"4671000-S200300022","type":"civildefense","name":"26센터 지하주차장 1~3층","address":"전북특별자치도 군산시 대학로 342 (나운동, 동아26빌딩)","sido":"전북특별자치도","sigungu":"군산시","lat":35.963515,"lng":126.69323},{"id":"4671000-S200200036","type":"civildefense","name":"수송 제일아파트 지하주차장 1층","address":"전북특별자치도 군산시 축동안길 37 (수송동, 수송동제일아파트)","sido":"전북특별자치도","sigungu":"군산시","lat":35.966868,"lng":126.71413},{"id":"4671000-S202300002","type":"civildefense","name":"내흥3LH아파트 지하주차장 1층","address":"전북특별자치도 군산시 사옥로 77(내흥동)","sido":"전북특별자치도","sigungu":"군산시","lat":36.002204,"lng":126.758266},{"id":"4671000-S200200025","type":"civildefense","name":"동신개나리아파트 지하주차장 1층","address":"전북특별자치도 군산시 양안로 119 (조촌동, 동신개나리아파트)","sido":"전북특별자치도","sigungu":"군산시","lat":35.972945,"lng":126.743755},{"id":"4671000-S201000015","type":"civildefense","name":"소룡동 제이파크 아파트 지하주차장 1층","address":"전북특별자치도 군산시 해망로 606 (소룡동, 소룡동 제이파크)","sido":"전북특별자치도","sigungu":"군산시","lat":35.980754,"lng":126.676734},{"id":"4671000-S200300003","type":"civildefense","name":"부향하나로아파트102,103동 지하주차장 1층","address":"전북특별자치도 군산시 경촌1길 56 (경암동, 경암동부향하나로아파트)","sido":"전북특별자치도","sigungu":"군산시","lat":35.980538,"lng":126.733771},{"id":"4671000-S200200007","type":"civildefense","name":"세풍아파트 제2지하주차장 1~2층","address":"전북특별자치도 군산시 영명길 6 (구암동, 세풍아파트)","sido":"전북특별자치도","sigungu":"군산시","lat":35.984158,"lng":126.742899},{"id":"4671000-S200300014","type":"civildefense","name":"나운1동 주민센터 지하 1층","address":"전북특별자치도 군산시 신설3길 3 (나운동, 나운1동주민센터)","sido":"전북특별자치도","sigungu":"군산시","lat":35.966813,"lng":126.694975},{"id":"4671000-S201000003","type":"civildefense","name":"한라 비발디 1차 지하주차장 1층","address":"전북특별자치도 군산시 수송동로 36 (수송동, 한라비발디1단지아파트)","sido":"전북특별자치도","sigungu":"군산시","lat":35.962637,"lng":126.71978},{"id":"4671000-S200200015","type":"civildefense","name":"조촌현대아파트 제4지하주차장 1층","address":"전북특별자치도 군산시 양안로 120 (조촌동, 현대아파트)","sido":"전북특별자치도","sigungu":"군산시","lat":35.972972,"lng":126.743947},{"id":"4671000-S200400003","type":"civildefense","name":"현대 파인빌 아파트 지하주차장 1층","address":"전북특별자치도 군산시 문화로 208-8 (미장동, 파인빌아파트)","sido":"전북특별자치도","sigungu":"군산시","lat":35.969798,"lng":126.728857},{"id":"4671000-S200200011","type":"civildefense","name":"전주지방법원, 전주지방검찰청 군산지청 지하주차장 1층","address":"전북특별자치도 군산시 법원로 68 (조촌동, 전주지방법원군산지원)","sido":"전북특별자치도","sigungu":"군산시","lat":35.968442,"lng":126.740451},{"id":"4671000-S201100003","type":"civildefense","name":"미룡 그린빌 아파트 2단지 지하주차장 1층","address":"전북특별자치도 군산시 미룡로 41 (미룡동, 미룡(2)주공아파트)","sido":"전북특별자치도","sigungu":"군산시","lat":35.943749,"lng":126.689826},{"id":"4671000-S202200001","type":"civildefense","name":"베스트웨스턴 군산호텔 지하주차장 1층","address":"전북특별자치도 군산시 새만금북로 435, 베스트웨스턴호텔 (오식도동)","sido":"전북특별자치도","sigungu":"군산시","lat":35.948516,"lng":126.583917},{"id":"4671000-S202300004","type":"civildefense","name":"스카이타운 3차 지하주차장 1층","address":"전북특별자치도 군산시 소룡안3길 34(소룡동, 스카이타운아파트)","sido":"전북특별자치도","sigungu":"군산시","lat":35.969888,"lng":126.681117},{"id":"4671000-S202300001","type":"civildefense","name":"오션클래스 지하주차장 1층","address":"전북특별자치도 군산시 내정로 27(내흥동, 오션클래스)","sido":"전북특별자치도","sigungu":"군산시","lat":35.992895,"lng":126.752133},{"id":"4671000-S200200035","type":"civildefense","name":"수송 동영 임대아파트 지하주차장 1층","address":"전북특별자치도 군산시 신평길 10 (수송동, 동영아파트)","sido":"전북특별자치도","sigungu":"군산시","lat":35.956054,"lng":126.713211},{"id":"4671000-S201800001","type":"civildefense","name":"대광 로제비앙 아파트 지하주차장 1층","address":"전북특별자치도 군산시 옥산면 월명로 55(군산 대광로제비앙 아파트)","sido":"전북특별자치도","sigungu":"군산시","lat":35.948853,"lng":126.715355},{"id":"4671000-S200300084","type":"civildefense","name":"부향1차 아파트 지하주차장 1층","address":"전북특별자치도 군산시 동아로 12 (산북동, 부향하나로1차아파트)","sido":"전북특별자치도","sigungu":"군산시","lat":35.960794,"lng":126.675497},{"id":"4671000-S202100002","type":"civildefense","name":"하나리움레비뉴스테이아파트 지하주차장 1~2층","address":"전북특별자치도 군산시 대명4길 9 (금암동, 레비뉴스테이)","sido":"전북특별자치도","sigungu":"군산시","lat":35.981708,"lng":126.722345},{"id":"4671000-S200200026","type":"civildefense","name":"조촌부향하나로아파트 지하주차장 1층","address":"전북특별자치도 군산시 번영로 188-22 (조촌동, 부향하나로아파트)","sido":"전북특별자치도","sigungu":"군산시","lat":35.962987,"lng":126.737784},{"id":"4671000-S200400004","type":"civildefense","name":"클래시움아파트 지하주차장 1층","address":"전북특별자치도 군산시 월명1길 3 (월명동, 클래시움 아파트)","sido":"전북특별자치도","sigungu":"군산시","lat":35.984886,"lng":126.706414},{"id":"4671000-S200200039","type":"civildefense","name":"세경아파트 지하주차장 1층","address":"전북특별자치도 군산시 하나운로 28 (나운동, 세경아파트)","sido":"전북특별자치도","sigungu":"군산시","lat":35.961217,"lng":126.700022},{"id":"4671000-S200200008","type":"civildefense","name":"세풍아파트 제3지하주차장 1~2층","address":"전북특별자치도 군산시 영명길 6 (구암동, 세풍아파트)","sido":"전북특별자치도","sigungu":"군산시","lat":35.984158,"lng":126.742899},{"id":"4671000-S200300005","type":"civildefense","name":"새한아파트 지하주차장 1층","address":"전북특별자치도 군산시 경촌3길 23 (경암동, 새한아파트)","sido":"전북특별자치도","sigungu":"군산시","lat":35.980167,"lng":126.735486},{"id":"4671000-S201700003","type":"civildefense","name":"하나리움시티 지하주차장 1~2층","address":"전북특별자치도 군산시 칠성7길 56 (산북동, 하나리움시티)","sido":"전북특별자치도","sigungu":"군산시","lat":35.96568,"lng":126.679499},{"id":"4671000-S200300079","type":"civildefense","name":"나운4차 현대아파트 지하주차장 1층","address":"전북특별자치도 군산시 나운안1길 24 (나운동)","sido":"전북특별자치도","sigungu":"군산시","lat":35.963338,"lng":126.704029},{"id":"4671000-S200200012","type":"civildefense","name":"조촌현대아파트 제1지하주차장 1층","address":"전북특별자치도 군산시 양안로 120 (조촌동, 현대아파트)","sido":"전북특별자치도","sigungu":"군산시","lat":35.972972,"lng":126.743947},{"id":"4671000-S201900002","type":"civildefense","name":"군산 디오션시티 e-편한세상 지하주차장 1~2층","address":"전북특별자치도 군산시 궁포2로 25 (조촌동, e편한세상디오션시티)","sido":"전북특별자치도","sigungu":"군산시","lat":35.980216,"lng":126.740393},{"id":"4671000-S201800002","type":"civildefense","name":"힐 스테이트 은파아파트 지하주차장 1층","address":"전북특별자치도 군산시 옥산면 월명로 45(힐스테이트 은파 아파트)","sido":"전북특별자치도","sigungu":"군산시","lat":35.947286,"lng":126.713813},{"id":"4671000-S201000007","type":"civildefense","name":"제일오투그란데아파트 2단지 지하주차장 1층","address":"전북특별자치도 군산시 축동로 34 (수송동, 군산수송동 제일오투그란데 2단지)","sido":"전북특별자치도","sigungu":"군산시","lat":35.962266,"lng":126.710807},{"id":"4671000-S201600001","type":"civildefense","name":"한성 필 하우스 아파트 지하주차장 1층","address":"전북특별자치도 군산시 요죽길 76 (오식도동, 한성필하우스)","sido":"전북특별자치도","sigungu":"군산시","lat":35.967471,"lng":126.564478},{"id":"4681000-S202000007","type":"civildefense","name":"부송오페라하우스","address":"전북특별자치도 익산시 선화로69길 42 (부송동, 오페라 하우스)","sido":"전북특별자치도","sigungu":"익산시","lat":35.957376,"lng":126.994018},{"id":"4681000-S201000002","type":"civildefense","name":"그린팰리스","address":"전북특별자치도 익산시 동천로 25 (동산동)","sido":"전북특별자치도","sigungu":"익산시","lat":35.928956,"lng":126.966012},{"id":"4681000-S200300008","type":"civildefense","name":"국민생활관","address":"전북특별자치도 익산시 선화로 255 (남중동, 익산시올림픽기념국민생활관)","sido":"전북특별자치도","sigungu":"익산시","lat":35.944769,"lng":126.958351},{"id":"4681000-S202000001","type":"civildefense","name":"금강골드리버파크1단지","address":"전북특별자치도 익산시 약촌로 25 (금강동, 골드리버파크)","sido":"전북특별자치도","sigungu":"익산시","lat":35.936373,"lng":126.978704},{"id":"4681000-S202500001","type":"civildefense","name":"익산 푸르지오 더 퍼스트","address":"전북특별자치도 익산시 왕궁면 국가식품로13길 40 (익산푸르지오더퍼스트)","sido":"전북특별자치도","sigungu":"익산시","lat":35.969334,"lng":127.089907},{"id":"4681000-S201600001","type":"civildefense","name":"부송제일오투그란데","address":"전북특별자치도 익산시 선화로73길 38 (부송동, 부송동오투그란데)","sido":"전북특별자치도","sigungu":"익산시","lat":35.958925,"lng":126.996817},{"id":"4681000-S201500010","type":"civildefense","name":"신동 금호어울림아파트","address":"전북특별자치도 익산시 인북로 334 (신동, 익산금호어울림)","sido":"전북특별자치도","sigungu":"익산시","lat":35.957915,"lng":126.961232},{"id":"4681000-S200000015","type":"civildefense","name":"제일3차아파트","address":"전북특별자치도 익산시 고봉로34길 35 (영등동)","sido":"전북특별자치도","sigungu":"익산시","lat":35.960256,"lng":126.975245},{"id":"4681000-S202000005","type":"civildefense","name":"배산제일오투그란데","address":"전북특별자치도 익산시 선화로 17 (모현동2가, 배산 제일 오투그란데)","sido":"전북특별자치도","sigungu":"익산시","lat":35.951697,"lng":126.933586},{"id":"4681000-S200500004","type":"civildefense","name":"한스빌아파트","address":"전북특별자치도 익산시 목천로 30-14 (목천동, 한스빌아파트)","sido":"전북특별자치도","sigungu":"익산시","lat":35.916477,"lng":126.933802},{"id":"4681000-S202000002","type":"civildefense","name":"금강골드리버파크2단지","address":"전북특별자치도 익산시 약촌로 25 (금강동, 골드리버파크)","sido":"전북특별자치도","sigungu":"익산시","lat":35.936373,"lng":126.978704},{"id":"4681000-S199800001","type":"civildefense","name":"원광대학교 학생회관","address":"전북특별자치도 익산시 익산대로 460 (신동, 원광대학교)","sido":"전북특별자치도","sigungu":"익산시","lat":35.966973,"lng":126.953379},{"id":"4681000-S200100006","type":"civildefense","name":"어양주공5단지(주공5차아파트)","address":"전북특별자치도 익산시 부송1로 17 (어양동)","sido":"전북특별자치도","sigungu":"익산시","lat":35.957093,"lng":126.984071},{"id":"4681000-S200100004","type":"civildefense","name":"부영1차아파트","address":"전북특별자치도 익산시 무왕로20길 17 (어양동)","sido":"전북특별자치도","sigungu":"익산시","lat":35.957044,"lng":126.98011},{"id":"4681000-S200100008","type":"civildefense","name":"어양주공7단지","address":"전북특별자치도 익산시 하나로10길 25 (어양동)","sido":"전북특별자치도","sigungu":"익산시","lat":35.961058,"lng":126.984109},{"id":"4681000-S202100001","type":"civildefense","name":"함열올림픽스포츠센터","address":"전북특별자치도 익산시 함열읍 함낭로 511, 함열올림픽스포츠센터","sido":"전북특별자치도","sigungu":"익산시","lat":36.074941,"lng":126.963928},{"id":"4681000-S200300024","type":"civildefense","name":"신일아파트 2동","address":"전북특별자치도 익산시 인북로9길 19 (남중동, 신일아파트)","sido":"전북특별자치도","sigungu":"익산시","lat":35.95275,"lng":126.956522},{"id":"4681000-S200000017","type":"civildefense","name":"부영2차아파트","address":"전북특별자치도 익산시 동서로61길 34 (어양동)","sido":"전북특별자치도","sigungu":"익산시","lat":35.954317,"lng":126.981172},{"id":"4681000-S201600003","type":"civildefense","name":"어양이편한세상","address":"전북특별자치도 익산시 동서로63길 25 (어양동, e편한세상어양)","sido":"전북특별자치도","sigungu":"익산시","lat":35.953978,"lng":126.985687},{"id":"4681000-S201100002","type":"civildefense","name":"배산휴먼시아 5단지","address":"전북특별자치도 익산시 선화로1길 57-32 (모현동2가)","sido":"전북특별자치도","sigungu":"익산시","lat":35.955891,"lng":126.936094},{"id":"4681000-S200100013","type":"civildefense","name":"모현배산제일2차아파트","address":"전북특별자치도 익산시 선화로19길 28 (모현동1가)","sido":"전북특별자치도","sigungu":"익산시","lat":35.953834,"lng":126.946287},{"id":"4681000-S202000016","type":"civildefense","name":"동연지하차도","address":"전북특별자치도 익산시 황등면 황등리 780 동연지하차도","sido":"전북특별자치도","sigungu":"익산시","lat":36.007478,"lng":126.943739},{"id":"4681000-S199500001","type":"civildefense","name":"장미아파트","address":"전북특별자치도 익산시 함열읍 함열9길 36","sido":"전북특별자치도","sigungu":"익산시","lat":36.077365,"lng":126.964696},{"id":"4681000-S199900004","type":"civildefense","name":"우남남부아파트","address":"전북특별자치도 익산시 목천로 346 (동산동)","sido":"전북특별자치도","sigungu":"익산시","lat":35.926736,"lng":126.958963},{"id":"4681000-S202400001","type":"civildefense","name":"익산시청(신청사)","address":"전북특별자치도 익산시 인북로32길 1, 익산시청 (남중동)","sido":"전북특별자치도","sigungu":"익산시","lat":35.947638,"lng":126.957628},{"id":"4681000-S200100002","type":"civildefense","name":"영등신일아파트 지하주차장 1층","address":"전북특별자치도 익산시 약촌로 192 (영등동, 신일아파트)","sido":"전북특별자치도","sigungu":"익산시","lat":35.950679,"lng":126.974164},{"id":"4681000-S200200053","type":"civildefense","name":"모현 현대6차아파트","address":"전북특별자치도 익산시 선화로 100-12 (모현동1가)","sido":"전북특별자치도","sigungu":"익산시","lat":35.947994,"lng":126.941403},{"id":"4681000-S200200060","type":"civildefense","name":"모현현대2차아파트","address":"전북특별자치도 익산시 배산로14길 9 (모현동1가, 현대아파트)","sido":"전북특별자치도","sigungu":"익산시","lat":35.945747,"lng":126.940103},{"id":"4681000-S200500014","type":"civildefense","name":"ABL생명","address":"전북특별자치도 익산시 익산대로16길 43 (창인동1가)","sido":"전북특별자치도","sigungu":"익산시","lat":35.939808,"lng":126.952051},{"id":"4681000-S199900001","type":"civildefense","name":"공설운동장 실내체육관","address":"전북특별자치도 익산시 무왕로 1397 (부송동)","sido":"전북특별자치도","sigungu":"익산시","lat":35.964861,"lng":127.010344},{"id":"4681000-S199900006","type":"civildefense","name":"동아1차아파트","address":"전북특별자치도 익산시 무왕로26길 32 (부송동)","sido":"전북특별자치도","sigungu":"익산시","lat":35.957845,"lng":126.998263},{"id":"4681000-S201600002","type":"civildefense","name":"하나리움아파트","address":"전북특별자치도 익산시 궁동로 151-9 (부송동, 하나리움아파트)","sido":"전북특별자치도","sigungu":"익산시","lat":35.963608,"lng":126.987741},{"id":"4681000-S202500002","type":"civildefense","name":"마동풍경채아파트","address":"전북특별자치도 익산시 서동로 194-12 (마동)","sido":"전북특별자치도","sigungu":"익산시","lat":35.937083,"lng":126.972103},{"id":"4681000-S202100006","type":"civildefense","name":"익산소방서 지하 1층","address":"전북특별자치도 익산시 무왕로 1338, 익산소방서 (팔봉동)","sido":"전북특별자치도","sigungu":"익산시","lat":35.962213,"lng":127.004929},{"id":"4681000-S200300031","type":"civildefense","name":"이화아파트","address":"전북특별자치도 익산시 익산대로 255 (남중동, 이화남중아파트)","sido":"전북특별자치도","sigungu":"익산시","lat":35.948813,"lng":126.950525},{"id":"4681000-S202000015","type":"civildefense","name":"삼바레기 지하차도","address":"전북특별자치도 익산시 황등면 황등로 210","sido":"전북특별자치도","sigungu":"익산시","lat":36.010345,"lng":126.942703},{"id":"4681000-S200300027","type":"civildefense","name":"교보생명","address":"전북특별자치도 익산시 인북로 209 (남중동, 교보생명빌딩)","sido":"전북특별자치도","sigungu":"익산시","lat":35.947455,"lng":126.956479},{"id":"4681000-S202500003","type":"civildefense","name":"인화동 행복주택","address":"전북특별자치도 익산시 목천로 320 (인화동2가)","sido":"전북특별자치도","sigungu":"익산시","lat":35.92669,"lng":126.95531},{"id":"4681000-S199900005","type":"civildefense","name":"대신쉐르빌아파트","address":"전북특별자치도 익산시 약촌로 31 (금강동)","sido":"전북특별자치도","sigungu":"익산시","lat":35.936876,"lng":126.978547},{"id":"4681000-S199900002","type":"civildefense","name":"동아2차아파트","address":"전북특별자치도 익산시 무왕로26길 33 (부송동)","sido":"전북특별자치도","sigungu":"익산시","lat":35.957691,"lng":126.998608},{"id":"4681000-S200200050","type":"civildefense","name":"부영3차아파트","address":"전북특별자치도 익산시 하나로 483-60 (영등동)","sido":"전북특별자치도","sigungu":"익산시","lat":35.963391,"lng":126.979065},{"id":"4681000-S200100007","type":"civildefense","name":"어양주공6단지(주공6차아파트)","address":"전북특별자치도 익산시 무왕로19길 11 (어양동)","sido":"전북특별자치도","sigungu":"익산시","lat":35.960009,"lng":126.984841},{"id":"4681000-S200200023","type":"civildefense","name":"마동 우림그린아파트 전체 동의 지하1층","address":"전북특별자치도 익산시 서동로 164 (마동, 우림마동그린맨션아파트)","sido":"전북특별자치도","sigungu":"익산시","lat":35.93659,"lng":126.968785},{"id":"4681000-S202100004","type":"civildefense","name":"솜리문화예술회관(익산예술의전당 분관) 지하1층","address":"전북특별자치도 익산시 선화1로 106, 익산예술의전당 분관 (마동)","sido":"전북특별자치도","sigungu":"익산시","lat":35.939229,"lng":126.969476},{"id":"4681000-S200500009","type":"civildefense","name":"삼성생명","address":"전북특별자치도 익산시 인북로 108 (갈산동)","sido":"전북특별자치도","sigungu":"익산시","lat":35.938567,"lng":126.953518},{"id":"4681000-S201500011","type":"civildefense","name":"이편한세상아파트","address":"전북특별자치도 익산시 선화로10길 17 (모현동1가, 익산e편한세상)","sido":"전북특별자치도","sigungu":"익산시","lat":35.946636,"lng":126.944866},{"id":"4681000-S201100003","type":"civildefense","name":"장신휴먼시아 1단지 아파트","address":"전북특별자치도 익산시 오산면 선화로4길 66 (장신휴먼시아1단지)","sido":"전북특별자치도","sigungu":"익산시","lat":35.945601,"lng":126.931806},{"id":"4681000-S202000003","type":"civildefense","name":"배산부영1차","address":"전북특별자치도 익산시 선화로 41 (모현동1가, 익산배산사랑으로부영1차)","sido":"전북특별자치도","sigungu":"익산시","lat":35.950662,"lng":126.93579},{"id":"4681000-S200300002","type":"civildefense","name":"부영5차아파트","address":"전북특별자치도 익산시 하나로10길 97 (부송동)","sido":"전북특별자치도","sigungu":"익산시","lat":35.962067,"lng":126.991914},{"id":"4681000-S200200052","type":"civildefense","name":"모현 현대4차아파트","address":"전북특별자치도 익산시 배산로16길 33 (모현동1가)","sido":"전북특별자치도","sigungu":"익산시","lat":35.946908,"lng":126.943262},{"id":"4681000-S200000009","type":"civildefense","name":"영등제일2차아파트 2지구 지하주차장 1층","address":"전북특별자치도 익산시 고봉로24길 18 (영등동, 영등2차제일아파트)","sido":"전북특별자치도","sigungu":"익산시","lat":35.95439,"lng":126.97131},{"id":"4681000-S202000013","type":"civildefense","name":"영등골든캐슬아파트 지하주차장 1층","address":"전북특별자치도 익산시 약촌로 268 (영등동, 골든캐슬아파트)","sido":"전북특별자치도","sigungu":"익산시","lat":35.957568,"lng":126.973471},{"id":"4681000-S200100014","type":"civildefense","name":"모현 현대5차아파트","address":"전북특별자치도 익산시 선화로8길 12 (모현동1가, 모현5차현대아파트)","sido":"전북특별자치도","sigungu":"익산시","lat":35.947483,"lng":126.942685},{"id":"4681000-S200000001","type":"civildefense","name":"영등라인1차아파트 지하주차장 1층","address":"전북특별자치도 익산시 고봉로16길 11 (영등동, 영등동라인아파트)","sido":"전북특별자치도","sigungu":"익산시","lat":35.947837,"lng":126.968422},{"id":"4681000-S200000005","type":"civildefense","name":"영등라인2차아파트 지하주차장 1층","address":"전북특별자치도 익산시 고봉로16길 12 (영등동, 라인2차아파트)","sido":"전북특별자치도","sigungu":"익산시","lat":35.947742,"lng":126.968395},{"id":"4681000-S201000001","type":"civildefense","name":"제이파크 아파트","address":"전북특별자치도 익산시 서동로 31 (인화동2가)","sido":"전북특별자치도","sigungu":"익산시","lat":35.930371,"lng":126.956671},{"id":"4681000-S199200001","type":"civildefense","name":"미래농정국 지하","address":"전북특별자치도 익산시 함열읍 함열중앙로 83 (원광보건대학제2켐퍼스)","sido":"전북특별자치도","sigungu":"익산시","lat":36.077626,"lng":126.966539},{"id":"4681000-S202100003","type":"civildefense","name":"코아루디펠리체아파트 전체 동의 지하 1~2층","address":"전북특별자치도 익산시 선화로55길 6(마동, 코아루디펠리체)","sido":"전북특별자치도","sigungu":"익산시","lat":35.94568,"lng":126.963549},{"id":"4681000-S200100010","type":"civildefense","name":"중앙하이츠아파트","address":"전북특별자치도 익산시 선화로5길 45 (모현동1가)","sido":"전북특별자치도","sigungu":"익산시","lat":35.952643,"lng":126.943587},{"id":"4681000-S200100015","type":"civildefense","name":"제일4차아파트","address":"전북특별자치도 익산시 무왕로9길 60 (영등동)","sido":"전북특별자치도","sigungu":"익산시","lat":35.963663,"lng":126.973161},{"id":"4681000-S202000009","type":"civildefense","name":"송학 더샾 지하1층","address":"전북특별자치도 익산시 학곤로20길 77 (송학동, 익산 더샵)","sido":"전북특별자치도","sigungu":"익산시","lat":35.944398,"lng":126.930918},{"id":"4681000-S200200054","type":"civildefense","name":"모현 명일아파트","address":"전북특별자치도 익산시 배산로24길 64 (모현동1가, 명일아파트)","sido":"전북특별자치도","sigungu":"익산시","lat":35.950604,"lng":126.948056},{"id":"4681000-S201000003","type":"civildefense","name":"동산여울휴먼시아 3단지","address":"전북특별자치도 익산시 동천로1길 7 (동산동)","sido":"전북특별자치도","sigungu":"익산시","lat":35.929937,"lng":126.967341},{"id":"4681000-S201100004","type":"civildefense","name":"장신휴먼시아 2단지 아파트","address":"전북특별자치도 익산시 오산면 선화로4길 24-9 (장신휴먼시아2단지)","sido":"전북특별자치도","sigungu":"익산시","lat":35.949351,"lng":126.931945},{"id":"4681000-S199300001","type":"civildefense","name":"원광대학교 의과대학병원 외래2관지하","address":"전북특별자치도 익산시 무왕로 895 (신동, 원광대학병원)","sido":"전북특별자치도","sigungu":"익산시","lat":35.963939,"lng":126.958244},{"id":"4681000-S202100002","type":"civildefense","name":"한국식품산업클러스터진흥원","address":"전북특별자치도 익산시 왕궁면 국가식품로 100, 한국식품산업클러스터진흥원 지하 1층","sido":"전북특별자치도","sigungu":"익산시","lat":35.979828,"lng":127.086168},{"id":"4681000-S200300026","type":"civildefense","name":"성호아파트","address":"전북특별자치도 익산시 동서로27길 6 (남중동, 성호아파트)","sido":"전북특별자치도","sigungu":"익산시","lat":35.953534,"lng":126.960013},{"id":"4681000-S202100005","type":"civildefense","name":"한국전력 익산지점 지하1층","address":"전북특별자치도 익산시 석암로15길 156, 한국전력익산지점 (팔봉동)","sido":"전북특별자치도","sigungu":"익산시","lat":35.961563,"lng":127.004454},{"id":"4681000-S200000002","type":"civildefense","name":"부송동신아파트","address":"전북특별자치도 익산시 부송1로 83 (부송동)","sido":"전북특별자치도","sigungu":"익산시","lat":35.957988,"lng":126.991328},{"id":"4681000-S200300023","type":"civildefense","name":"신일아파트 1동","address":"전북특별자치도 익산시 인북로9길 19 (남중동, 신일아파트)","sido":"전북특별자치도","sigungu":"익산시","lat":35.95275,"lng":126.956522},{"id":"4681000-S200100011","type":"civildefense","name":"모현 우림한솔","address":"전북특별자치도 익산시 동서로 146-8 (모현동1가, 우림모현한솔맨션)","sido":"전북특별자치도","sigungu":"익산시","lat":35.955086,"lng":126.95073},{"id":"4681000-S199200004","type":"civildefense","name":"제일1차아파트","address":"전북특별자치도 익산시 서동로18길 46-1 (동산동)","sido":"전북특별자치도","sigungu":"익산시","lat":35.934068,"lng":126.963732},{"id":"4681000-S200100005","type":"civildefense","name":"어양주공4단지","address":"전북특별자치도 익산시 부송1로 17 (어양동)","sido":"전북특별자치도","sigungu":"익산시","lat":35.957093,"lng":126.984071},{"id":"4681000-S199500002","type":"civildefense","name":"신일고층아파트","address":"전북특별자치도 익산시 함열읍 함열중앙로 76-7","sido":"전북특별자치도","sigungu":"익산시","lat":36.077054,"lng":126.965327},{"id":"4681000-S201100005","type":"civildefense","name":"장신휴먼시아 3단지 아파트","address":"전북특별자치도 익산시 오산면 선화로4길 14 (장신휴먼시아3단지)","sido":"전북특별자치도","sigungu":"익산시","lat":35.950114,"lng":126.933421},{"id":"4681000-S202000010","type":"civildefense","name":"송학지안리즈 지하1층","address":"전북특별자치도 익산시 학곤로 154-7 (송학동, 송학 지안리즈)","sido":"전북특별자치도","sigungu":"익산시","lat":35.940135,"lng":126.93003},{"id":"4681000-S200000003","type":"civildefense","name":"부송동우남콤비아파트","address":"전북특별자치도 익산시 무왕로26길 11-5 (부송동)","sido":"전북특별자치도","sigungu":"익산시","lat":35.959608,"lng":126.998541},{"id":"4681000-S200100012","type":"civildefense","name":"모현현대3차아파트","address":"전북특별자치도 익산시 배산로 91-9 (모현동1가)","sido":"전북특별자치도","sigungu":"익산시","lat":35.946105,"lng":126.938225},{"id":"4681000-S202000004","type":"civildefense","name":"배산부영2차","address":"전북특별자치도 익산시 선화로1길 57-33 (모현동2가, 익산배산사랑으로부영2차아파트)","sido":"전북특별자치도","sigungu":"익산시","lat":35.955543,"lng":126.93585},{"id":"4681000-S200200037","type":"civildefense","name":"원주아파트","address":"전북특별자치도 익산시 목천로 48 (목천동, 목천동원주아파트)","sido":"전북특별자치도","sigungu":"익산시","lat":35.918035,"lng":126.934043},{"id":"4681000-S200200059","type":"civildefense","name":"영등동 지하보도","address":"전북특별자치도 익산시 무왕로 1053 (영등동)","sido":"전북특별자치도","sigungu":"익산시","lat":35.958688,"lng":126.97394},{"id":"4681000-S202000006","type":"civildefense","name":"부송코아루디펠리체","address":"전북특별자치도 익산시 부송1로 120-11 (부송동, 익산코아루디펠리체아파트)","sido":"전북특별자치도","sigungu":"익산시","lat":35.957362,"lng":126.995555},{"id":"4681000-S202000011","type":"civildefense","name":"어양엘드수목토","address":"전북특별자치도 익산시 무왕로19길 18 (어양동, 엘드수목토)","sido":"전북특별자치도","sigungu":"익산시","lat":35.960695,"lng":126.984977},{"id":"4681000-S202000014","type":"civildefense","name":"부송삼성아파트","address":"전북특별자치도 익산시 선화로69길 59(부송동, 삼성아파트)","sido":"전북특별자치도","sigungu":"익산시","lat":35.959016,"lng":126.993547},{"id":"4681000-S201000004","type":"civildefense","name":"제일아파트","address":"전북특별자치도 익산시 함열읍 함열5길 19-21","sido":"전북특별자치도","sigungu":"익산시","lat":36.07479,"lng":126.961594},{"id":"4681000-S200000008","type":"civildefense","name":"영등제일2차아파트 1지구 지하주차장 1층","address":"전북특별자치도 익산시 고봉로24길 30 (영등동, 영등2차제일아파트)","sido":"전북특별자치도","sigungu":"익산시","lat":35.955338,"lng":126.971691},{"id":"4681000-S200100020","type":"civildefense","name":"우남그랜드타운","address":"전북특별자치도 익산시 하나로13길 26 (영등동)","sido":"전북특별자치도","sigungu":"익산시","lat":35.960541,"lng":126.978456},{"id":"4681000-S201000005","type":"civildefense","name":"동도미소드림 아파트","address":"전북특별자치도 익산시 하나로 498-21 (어양동)","sido":"전북특별자치도","sigungu":"익산시","lat":35.965306,"lng":126.983159},{"id":"4681000-S201000006","type":"civildefense","name":"익산 자이아파트","address":"전북특별자치도 익산시 동서로 509 (어양동)","sido":"전북특별자치도","sigungu":"익산시","lat":35.953722,"lng":126.988467},{"id":"4681000-S202300001","type":"civildefense","name":"송학크래지움캐슬","address":"전북특별자치도 익산시 학곤로16길 52-16 (송학동, 송학 크레지움캐슬)","sido":"전북특별자치도","sigungu":"익산시","lat":35.941262,"lng":126.932308},{"id":"4681000-S202000012","type":"civildefense","name":"어양제일오투그란데에버","address":"전북특별자치도 익산시 하나로12길 17 (어양동, 어양 제일오투그란데 에버 아파트)","sido":"전북특별자치도","sigungu":"익산시","lat":35.963948,"lng":126.982605},{"id":"4681000-S199700001","type":"civildefense","name":"라인아파트","address":"전북특별자치도 익산시 동천로 81-12 (동산동, 동산동 라인아파트)","sido":"전북특별자치도","sigungu":"익산시","lat":35.930237,"lng":126.971251},{"id":"4681000-S201100001","type":"civildefense","name":"배산휴먼시아 4단지","address":"전북특별자치도 익산시 선화로1길 25-14 (모현동2가)","sido":"전북특별자치도","sigungu":"익산시","lat":35.952709,"lng":126.937009},{"id":"4681000-S202300002","type":"civildefense","name":"영무예다음 2차","address":"전북특별자치도 익산시 학곤로1길 13 (송학동, 송학동 영무예다음 2차아파트)","sido":"전북특별자치도","sigungu":"익산시","lat":35.939018,"lng":126.928661},{"id":"4681000-S200200011","type":"civildefense","name":"동이리장례식장","address":"전북특별자치도 익산시 서동로 5 (인화동2가, 동이리장례식장)","sido":"전북특별자치도","sigungu":"익산시","lat":35.928079,"lng":126.955779},{"id":"4681000-S202000008","type":"civildefense","name":"부송제일까치샘","address":"전북특별자치도 익산시 무왕로21길 18 (부송동, 제일 까치샘)","sido":"전북특별자치도","sigungu":"익산시","lat":35.960878,"lng":126.986606},{"id":"4691000-S200300020","type":"civildefense","name":"상동대림아파트 지하주차장 1층","address":"전북특별자치도 정읍시 금붕1길 1-1 (상동, 대림아파트)","sido":"전북특별자치도","sigungu":"정읍시","lat":35.555678,"lng":126.873436},{"id":"4691000-S201700002","type":"civildefense","name":"영무예다음아파트 지하주차장 1층","address":"전북특별자치도 정읍시 중앙로 55 (연지동, 정읍연지동영무예다음)","sido":"전북특별자치도","sigungu":"정읍시","lat":35.571663,"lng":126.84783},{"id":"4691000-S200200003","type":"civildefense","name":"부영1차아파트 104동 지하주차장 1층","address":"전북특별자치도 정읍시 수성택지2길 17 (수성동, 부영1차아파트)","sido":"전북특별자치도","sigungu":"정읍시","lat":35.576903,"lng":126.856564},{"id":"4691000-S200200006","type":"civildefense","name":"부영2차아파트 203동 지하주차장 1층","address":"전북특별자치도 정읍시 샘골로 158 (수성동, 부영2차아파트)","sido":"전북특별자치도","sigungu":"정읍시","lat":35.582708,"lng":126.8602},{"id":"4691000-S201200012","type":"civildefense","name":"센트럴카운티아파트103동 지하주차장","address":"전북특별자치도 정읍시 시기1길 22 (시기동, 정읍센트럴카운티)","sido":"전북특별자치도","sigungu":"정읍시","lat":35.554689,"lng":126.862062},{"id":"4691000-S201100001","type":"civildefense","name":"대우드림채아파트 지하주차장 1층","address":"전북특별자치도 정읍시 학산로 103-4 (상동, 대우드림채아파트)","sido":"전북특별자치도","sigungu":"정읍시","lat":35.559048,"lng":126.873316},{"id":"4691000-S200200001","type":"civildefense","name":"부영1차아파트 103동 지하주차장 1층","address":"전북특별자치도 정읍시 수성택지2길 17 (수성동, 부영1차아파트)","sido":"전북특별자치도","sigungu":"정읍시","lat":35.576903,"lng":126.856564},{"id":"4691000-S199500001","type":"civildefense","name":"정읍시청 본관 지하1층","address":"전북특별자치도 정읍시 충정로 234 (수성동, 정읍시청)","sido":"전북특별자치도","sigungu":"정읍시","lat":35.569477,"lng":126.855843},{"id":"4691000-S200300016","type":"civildefense","name":"현대3차아파트301동 지하 1층","address":"전북특별자치도 정읍시 상동중앙로 62-16 (상동, 3차현대아파트)","sido":"전북특별자치도","sigungu":"정읍시","lat":35.561676,"lng":126.869729},{"id":"4691000-S201200005","type":"civildefense","name":"휴먼시아아파트3단지 지하주차장 1층","address":"전북특별자치도 정읍시 학산로 89-71 (상동, 상동휴먼시아2단지)","sido":"전북특별자치도","sigungu":"정읍시","lat":35.556914,"lng":126.875923},{"id":"4691000-S201700003","type":"civildefense","name":"뉴캐슬아파트 지하주차장 1층","address":"전북특별자치도 정읍시 수성택지2길 65 (수성동, 뉴캐슬아파트)","sido":"전북특별자치도","sigungu":"정읍시","lat":35.579158,"lng":126.858477},{"id":"4691000-S200200005","type":"civildefense","name":"부영2차아파트 204동 지하주차장 1층","address":"전북특별자치도 정읍시 샘골로 158 (수성동, 부영2차아파트)","sido":"전북특별자치도","sigungu":"정읍시","lat":35.582708,"lng":126.8602},{"id":"4691000-S199600001","type":"civildefense","name":"신흥장미아파트2차 103동 지하 1층","address":"전북특별자치도 정읍시 용흥2길 14 (상평동, 신흥장미아파트)","sido":"전북특별자치도","sigungu":"정읍시","lat":35.566398,"lng":126.83733},{"id":"4691000-S199400002","type":"civildefense","name":"신흥장미아파트1차 101동 지하 1층","address":"전북특별자치도 정읍시 용흥2길 14 (상평동, 신흥장미아파트)","sido":"전북특별자치도","sigungu":"정읍시","lat":35.566398,"lng":126.83733},{"id":"4691000-S202200001","type":"civildefense","name":"신태인주공아파트 103동 지하 1층","address":"전북특별자치도 정읍시 신태인읍 호남철로 32-13, 103동 지하1층 (정읍신태인주공아파트)","sido":"전북특별자치도","sigungu":"정읍시","lat":35.693953,"lng":126.884573},{"id":"4691000-S201200014","type":"civildefense","name":"센트럴카운티아파트101동 지하주차장","address":"전북특별자치도 정읍시 시기1길 22 (시기동, 정읍센트럴카운티)","sido":"전북특별자치도","sigungu":"정읍시","lat":35.554689,"lng":126.862062},{"id":"4691000-S202200002","type":"civildefense","name":"신태인주공아파트 104동 지하 1층","address":"전북특별자치도 정읍시 신태인읍 호남철로 32-13, 104동 지하1층 (정읍신태인주공아파트)","sido":"전북특별자치도","sigungu":"정읍시","lat":35.693953,"lng":126.884573},{"id":"4691000-S201200002","type":"civildefense","name":"엘드수목토아파트1단지 지하주차장 1층","address":"전북특별자치도 정읍시 학산로 89 (상동, 엘드수목토)","sido":"전북특별자치도","sigungu":"정읍시","lat":35.560401,"lng":126.873903},{"id":"4691000-S200000012","type":"civildefense","name":"영화아파트 지하 1층","address":"전북특별자치도 정읍시 천변로 310 (시기동, 영화아파트)","sido":"전북특별자치도","sigungu":"정읍시","lat":35.557973,"lng":126.860448},{"id":"4691000-S200200002","type":"civildefense","name":"부영2차아파트201동 지하주차장 1층","address":"전북특별자치도 정읍시 샘골로 158(수성동, 부영2차아파트)","sido":"전북특별자치도","sigungu":"정읍시","lat":35.582708,"lng":126.8602},{"id":"4691000-S200300017","type":"civildefense","name":"상동우미타운아파트 지하주차장 1층","address":"전북특별자치도 정읍시 학산로 95 (상동, 우미타운)","sido":"전북특별자치도","sigungu":"정읍시","lat":35.559808,"lng":126.873566},{"id":"4691000-S200000011","type":"civildefense","name":"은하아파트 지하 1층","address":"전북특별자치도 정읍시 초산1길 17 (시기동, 은하식당)","sido":"전북특별자치도","sigungu":"정읍시","lat":35.559983,"lng":126.853349},{"id":"4691000-S200000009","type":"civildefense","name":"유창2차아파트 지하 1층","address":"전북특별자치도 정읍시 남산5길 5 (시기동)","sido":"전북특별자치도","sigungu":"정읍시","lat":35.559157,"lng":126.848301},{"id":"4691000-S200300003","type":"civildefense","name":"삼화그린아파트 지하주차장 1층","address":"전북특별자치도 정읍시 대흥3길 21-13, 103층 (시기동, 삼화그린아파트)","sido":"전북특별자치도","sigungu":"정읍시","lat":35.567052,"lng":126.849856},{"id":"4691000-S200300018","type":"civildefense","name":"상동 LG아파트 지하주차장 1층","address":"전북특별자치도 정읍시 상사3길 47 (상동, 엘지아파트)","sido":"전북특별자치도","sigungu":"정읍시","lat":35.561588,"lng":126.8659},{"id":"4691000-S201600010","type":"civildefense","name":"양우내안애아파트 지하주차장 1층","address":"전북특별자치도 정읍시 천변로 394-16 (시기동, 양우내안애아파트)","sido":"전북특별자치도","sigungu":"정읍시","lat":35.55393,"lng":126.867369},{"id":"4691000-S201200007","type":"civildefense","name":"신성미소지움아파트 지하주차장","address":"전북특별자치도 정읍시 상동중앙로 41 (상동, 정읍신성미소지움아파트)","sido":"전북특별자치도","sigungu":"정읍시","lat":35.560526,"lng":126.86786},{"id":"4691000-S200000018","type":"civildefense","name":"유창1차아파트 지하 1층","address":"전북특별자치도 정읍시 남산5길 19-9 (시기동, 유창파크맨션1차)","sido":"전북특별자치도","sigungu":"정읍시","lat":35.560599,"lng":126.848355},{"id":"4691000-S200200007","type":"civildefense","name":"부영2차아파트 202동 지하주차장 1층","address":"전북특별자치도 정읍시 샘골로 158 (수성동, 부영2차아파트)","sido":"전북특별자치도","sigungu":"정읍시","lat":35.582708,"lng":126.8602},{"id":"4691000-S200200004","type":"civildefense","name":"부영1차아파트 102동 지하주차장 1층","address":"전북특별자치도 정읍시 수성택지2길 17 (수성동, 부영1차아파트)","sido":"전북특별자치도","sigungu":"정읍시","lat":35.576903,"lng":126.856564},{"id":"4691000-S199200002","type":"civildefense","name":"신흥장미아파트 2차 105동 지하 1층","address":"전북특별자치도 정읍시 용흥1길 15-25 (상평동, 신흥장미아파트)","sido":"전북특별자치도","sigungu":"정읍시","lat":35.566322,"lng":126.837843},{"id":"4691000-S199200001","type":"civildefense","name":"신흥장미아파트 1차 102동 지하 1층","address":"전북특별자치도 정읍시 용흥1길 15-48 (상평동, 신흥장미아파트)","sido":"전북특별자치도","sigungu":"정읍시","lat":35.566004,"lng":126.837874},{"id":"4691000-S201200013","type":"civildefense","name":"센트럴카운티아파트102동 지하주차장","address":"전북특별자치도 정읍시 시기1길 22 (시기동, 정읍센트럴카운티)","sido":"전북특별자치도","sigungu":"정읍시","lat":35.554689,"lng":126.862062},{"id":"4691000-S202200003","type":"civildefense","name":"신태인농협 지하 1층","address":"전북특별자치도 정읍시 신태인읍 정신로 1165, 농협신태인점","sido":"전북특별자치도","sigungu":"정읍시","lat":35.68851,"lng":126.884772},{"id":"4691000-S201200004","type":"civildefense","name":"휴먼시아아파트 2단지 지하주차장 1층","address":"전북특별자치도 정읍시 학산로 89-71 (상동, 상동휴먼시아2단지)","sido":"전북특별자치도","sigungu":"정읍시","lat":35.556914,"lng":126.875923},{"id":"4701000-S200300011","type":"civildefense","name":"남진빌라 지하주차장 1층","address":"전북특별자치도 남원시 동헌길 198 (죽항동, 남진빌라)","sido":"전북특별자치도","sigungu":"남원시","lat":35.407589,"lng":127.387334},{"id":"4701000-S200100004","type":"civildefense","name":"부영2차아파트 207동 지하주차장 1층","address":"전북특별자치도 남원시 오들1길 97 (월락동)","sido":"전북특별자치도","sigungu":"남원시","lat":35.420289,"lng":127.401697},{"id":"4701000-S202100001","type":"civildefense","name":"운봉초등학교 지하1층","address":"전북특별자치도 남원시 운봉읍 운봉로 725, 운봉초등학교","sido":"전북특별자치도","sigungu":"남원시","lat":35.440188,"lng":127.532942},{"id":"4701000-S200100006","type":"civildefense","name":"부영3차아파트 303동 지하주차장 1층","address":"전북특별자치도 남원시 오들1길 82 (월락동)","sido":"전북특별자치도","sigungu":"남원시","lat":35.419853,"lng":127.401311},{"id":"4701000-S201000004","type":"civildefense","name":"전라북도 공무원교육원 지하1층","address":"전북특별자치도 남원시 산성길 87 (산곡동)","sido":"전북특별자치도","sigungu":"남원시","lat":35.423209,"lng":127.371724},{"id":"4701000-S199800002","type":"civildefense","name":"비안아파트 지하주차장 1층","address":"전북특별자치도 남원시 노송로 1237 (노암동)","sido":"전북특별자치도","sigungu":"남원시","lat":35.394792,"lng":127.376999},{"id":"4701000-S202100003","type":"civildefense","name":"장애인 종합복지관 지하1층","address":"전북특별자치도 남원시 이백면 닭뫼안길 87, 남원장애인종합복지관","sido":"전북특별자치도","sigungu":"남원시","lat":35.452625,"lng":127.441395},{"id":"4701000-S199200001","type":"civildefense","name":"남원시청 지하1층","address":"전북특별자치도 남원시 시청로 60 (도통동)","sido":"전북특별자치도","sigungu":"남원시","lat":35.415807,"lng":127.389898},{"id":"4701000-S200100008","type":"civildefense","name":"부영5차아파트 504동 지하주차장 1층","address":"전북특별자치도 남원시 오들1길 26 (도통동)","sido":"전북특별자치도","sigungu":"남원시","lat":35.418202,"lng":127.398943},{"id":"4701000-S201000005","type":"civildefense","name":"도립노인요양병원 지하1층","address":"전북특별자치도 남원시 산성길 51-15 (산곡동, 전북도립남원노인요양병원)","sido":"전북특별자치도","sigungu":"남원시","lat":35.420947,"lng":127.373023},{"id":"4701000-S200200001","type":"civildefense","name":"부영5차아파트  506동 지하주차장 1층","address":"전북특별자치도 남원시 오들1길 26 (도통동)","sido":"전북특별자치도","sigungu":"남원시","lat":35.418202,"lng":127.398943},{"id":"4701000-S202100005","type":"civildefense","name":"인월만나재가복지센터 지하1층","address":"전북특별자치도 남원시 인월면 인월장터로 27","sido":"전북특별자치도","sigungu":"남원시","lat":35.462141,"lng":127.601111},{"id":"4701000-S202100006","type":"civildefense","name":"아영초등학교 다목적체육관","address":"전북특별자치도 남원시 아영면 고인청계길 15, 아영초등학교","sido":"전북특별자치도","sigungu":"남원시","lat":35.505952,"lng":127.61004},{"id":"4701000-S201900001","type":"civildefense","name":"금동휴먼시아아파트 103동 지하주차장 1층","address":"전북특별자치도 남원시 가방뜰길 57 (금동, 금동휴먼시아)","sido":"전북특별자치도","sigungu":"남원시","lat":35.400719,"lng":127.370553},{"id":"4701000-S200100002","type":"civildefense","name":"부영2차아파트 205동 지하주차장 1층","address":"전북특별자치도 남원시 오들1길 97 (월락동, 부영2차아파트)","sido":"전북특별자치도","sigungu":"남원시","lat":35.420289,"lng":127.401697},{"id":"4701000-S199500004","type":"civildefense","name":"비사벌아파트 지하주차장 1층","address":"전북특별자치도 남원시 광천남길 410 (왕정동)","sido":"전북특별자치도","sigungu":"남원시","lat":35.409146,"lng":127.371932},{"id":"4701000-S202100007","type":"civildefense","name":"일성지리산콘도 지하1층","address":"전북특별자치도 남원시 산내면 천왕봉로 626-25, 일성지리산콘도미니엄","sido":"전북특별자치도","sigungu":"남원시","lat":35.423234,"lng":127.621058},{"id":"4701000-S199500007","type":"civildefense","name":"금호프라자 지하주차장 1층","address":"전북특별자치도 남원시 남문로 385-16 (왕정동)","sido":"전북특별자치도","sigungu":"남원시","lat":35.407703,"lng":127.374466},{"id":"4701000-S202100004","type":"civildefense","name":"하늘아래아파트 지하1층","address":"전북특별자치도 남원시 인월면 인월1길 25(하늘아래아파트)","sido":"전북특별자치도","sigungu":"남원시","lat":35.462431,"lng":127.598203},{"id":"4701000-S199600001","type":"civildefense","name":"한신아파트 지하주차장 1층","address":"전북특별자치도 남원시 노송로 1229 (노암동)","sido":"전북특별자치도","sigungu":"남원시","lat":35.394177,"lng":127.376264},{"id":"4701000-S201900003","type":"civildefense","name":"수창해뜨레아파트 지하주차장 1층","address":"전북특별자치도 남원시 농원길 27 (조산동, 남원수창해뜨레아파트)","sido":"전북특별자치도","sigungu":"남원시","lat":35.396074,"lng":127.367017},{"id":"4701000-S201900002","type":"civildefense","name":"금동휴먼시아아파트 108동 지하주차장 1층","address":"전북특별자치도 남원시 가방뜰길 57 (금동, 금동휴먼시아)","sido":"전북특별자치도","sigungu":"남원시","lat":35.400719,"lng":127.370553},{"id":"4701000-S199500001","type":"civildefense","name":"부영1차아파트 101동 지하주차장 1층","address":"전북특별자치도 남원시 용성로 207 (도통동, 부영1차아파트)","sido":"전북특별자치도","sigungu":"남원시","lat":35.416452,"lng":127.395316},{"id":"4701000-S199200003","type":"civildefense","name":"켄싱턴리조트 지하1층","address":"전북특별자치도 남원시 소리길 66 (어현동)","sido":"전북특별자치도","sigungu":"남원시","lat":35.402667,"lng":127.385126},{"id":"4701000-S199500003","type":"civildefense","name":"명지2단지아파트 지하주차장 1층","address":"전북특별자치도 남원시 성황단길 38 (왕정동, 명지아파트2단지)","sido":"전북특별자치도","sigungu":"남원시","lat":35.41106,"lng":127.369165},{"id":"4701000-S200300020","type":"civildefense","name":"현대아파트 104동 지하주차장 1층","address":"전북특별자치도 남원시 동문로 83 (동충동)","sido":"전북특별자치도","sigungu":"남원시","lat":35.413104,"lng":127.386015},{"id":"4701000-S202100002","type":"civildefense","name":"한국경마축산고등학교 지하1층","address":"전북특별자치도 남원시 운봉읍 황산로 952, 한국경마축산고등학교","sido":"전북특별자치도","sigungu":"남원시","lat":35.440524,"lng":127.516598},{"id":"4701000-S200300006","type":"civildefense","name":"남원새마을금고 본점 지하주차장 1층","address":"전북특별자치도 남원시 남문로 445, 남원새마을금고 (하정동)","sido":"전북특별자치도","sigungu":"남원시","lat":35.406494,"lng":127.380039},{"id":"4701000-S199300001","type":"civildefense","name":"지리산낙협 지하주차장 1층","address":"전북특별자치도 남원시 의총로 28 (금동, 농협)","sido":"전북특별자치도","sigungu":"남원시","lat":35.403097,"lng":127.37637},{"id":"4701000-S200200002","type":"civildefense","name":"부영5차아파트  507동 지하주차장 1층","address":"전북특별자치도 남원시 오들1길 26 (도통동)","sido":"전북특별자치도","sigungu":"남원시","lat":35.418202,"lng":127.398943},{"id":"4701000-S200100001","type":"civildefense","name":"부영2차아파트 204동 지하주차장 1층","address":"전북특별자치도 남원시 오들1길 97 (월락동, 부영2차아파트)","sido":"전북특별자치도","sigungu":"남원시","lat":35.420289,"lng":127.401697},{"id":"4701000-S201000007","type":"civildefense","name":"메카센트럴아파트 지하주차장 1층","address":"전북특별자치도 남원시 요천로 1300 (조산동, 메카센트럴)","sido":"전북특별자치도","sigungu":"남원시","lat":35.396585,"lng":127.366559},{"id":"4701000-S200100009","type":"civildefense","name":"부영3차아파트 305동 지하주차장 1층","address":"전북특별자치도 남원시 오들1길 82 (월락동)","sido":"전북특별자치도","sigungu":"남원시","lat":35.419853,"lng":127.401311},{"id":"4701000-S200300005","type":"civildefense","name":"국민은행남원지점 지하주차장 1층","address":"전북특별자치도 남원시 광한서로 64 (하정동, 국민은행)","sido":"전북특별자치도","sigungu":"남원시","lat":35.406792,"lng":127.378197},{"id":"4701000-S200100003","type":"civildefense","name":"부영2차아파트 206동 지하주차장 1층","address":"전북특별자치도 남원시 오들1길 97 (월락동, 부영2차아파트)","sido":"전북특별자치도","sigungu":"남원시","lat":35.420289,"lng":127.401697},{"id":"4701000-S200100005","type":"civildefense","name":"부영2차아파트 208동 지하주차장 1층","address":"전북특별자치도 남원시 오들1길 97 (월락동)","sido":"전북특별자치도","sigungu":"남원시","lat":35.420289,"lng":127.401697},{"id":"4711000-S200100002","type":"civildefense","name":"부영3차아파트 지하주차장 1층","address":"전북특별자치도 김제시 도작로 33 (신풍동)","sido":"전북특별자치도","sigungu":"김제시","lat":35.798226,"lng":126.903507},{"id":"4711000-S202500002","type":"civildefense","name":"신풍 오투그란데 아파트 지하주차장 1층","address":"전북특별자치도 김제시 신풍길 146 (신풍동, 제일오투그란데아파트)","sido":"전북특별자치도","sigungu":"김제시","lat":35.796656,"lng":126.89541},{"id":"4711000-S198900001","type":"civildefense","name":"김제시청 지하 1층 식당","address":"전북특별자치도 김제시 중앙로 40 (서암동, 김제시청)","sido":"전북특별자치도","sigungu":"김제시","lat":35.804495,"lng":126.880586},{"id":"4711000-S200200001","type":"civildefense","name":"대방아파트 지하주차장 1층","address":"전북특별자치도 김제시 금성8길 56 (신풍동, 대방아파트)","sido":"전북특별자치도","sigungu":"김제시","lat":35.801537,"lng":126.899372},{"id":"4711000-S200200002","type":"civildefense","name":"성산그린빌아파트 지하주차장 1층","address":"전북특별자치도 김제시 벽지산로 70 (신풍동, 성산그린빌아파트)","sido":"전북특별자치도","sigungu":"김제시","lat":35.7902,"lng":126.892939},{"id":"4711000-S199600001","type":"civildefense","name":"김제시청 지하 1층 대피소","address":"전북특별자치도 김제시 중앙로 40 (서암동, 김제시청)","sido":"전북특별자치도","sigungu":"김제시","lat":35.804495,"lng":126.880586},{"id":"4711000-S201400001","type":"civildefense","name":"LH 교동휴먼시아 아파트 지하주차장 1층","address":"전북특별자치도 김제시 교정길 36 (교동, 김제교동휴먼시아)","sido":"전북특별자치도","sigungu":"김제시","lat":35.798027,"lng":126.878309},{"id":"4711000-S202500003","type":"civildefense","name":"지오스테이션 1차 아파트 지하주차장 1층","address":"전북특별자치도 김제시 백산면 지평선산단로 394-8 (G5스테이션 아파트)","sido":"전북특별자치도","sigungu":"김제시","lat":35.853628,"lng":126.886136},{"id":"4711000-S199200001","type":"civildefense","name":"검산 부영1차아파트 지하주차장 1층","address":"전북특별자치도 김제시 도작로 111 (검산동, 부영아파트)","sido":"전북특별자치도","sigungu":"김제시","lat":35.80437,"lng":126.899325},{"id":"4711000-S201700001","type":"civildefense","name":"검산샬레1차아파트 지하주자장 1층","address":"전북특별자치도 김제시 검산택지4길 30 (검산동, 김제검산샬레1차아파트)","sido":"전북특별자치도","sigungu":"김제시","lat":35.803035,"lng":126.906321},{"id":"4711000-S200100003","type":"civildefense","name":"김제보건소 지하 주차장 2층","address":"전북특별자치도 김제시 성산길 138 (요촌동, 보건소)","sido":"전북특별자치도","sigungu":"김제시","lat":35.800807,"lng":126.883317},{"id":"4711000-S202100001","type":"civildefense","name":"모다아울렛 지하주차장 1층","address":"전북특별자치도 김제시 용지면 콩쥐팥쥐로 855, 모다아울렛","sido":"전북특별자치도","sigungu":"김제시","lat":35.817234,"lng":126.99366},{"id":"4711000-S202500001","type":"civildefense","name":"하우스디 아파트 지하주차장 1층","address":"전북특별자치도 김제시 벽지산로 200 (옥산동, 김제 하우스디)","sido":"전북특별자치도","sigungu":"김제시","lat":35.794395,"lng":126.880668},{"id":"4711000-S201700002","type":"civildefense","name":"하동 오투그란데아파트 지하주차장 1층","address":"전북특별자치도 김제시 요촌중길 146 (하동, 하동제일오투그란데)","sido":"전북특별자치도","sigungu":"김제시","lat":35.80942,"lng":126.89125},{"id":"4711000-S201100002","type":"civildefense","name":"위드아파트 지하주차장 1층","address":"전북특별자치도 김제시 남북로 267 (서암동, 위드아파트)","sido":"전북특별자치도","sigungu":"김제시","lat":35.807708,"lng":126.883211},{"id":"4721000-S202000002","type":"civildefense","name":"고산면행정복지센터 지하 1층","address":"전북특별자치도 완주군 고산면 고산로 69-13, 고산면사무소","sido":"전북특별자치도","sigungu":"완주군","lat":35.976128,"lng":127.205286},{"id":"4721000-S201700009","type":"civildefense","name":"전북혁신LH10단지아파트 전체 동의 지하주차장 1층","address":"전북특별자치도 완주군 이서면 갈산1로 12(전북혁신엘에이치아파트10단지)","sido":"전북특별자치도","sigungu":"완주군","lat":35.834434,"lng":127.054433},{"id":"4721000-S200300007","type":"civildefense","name":"삼례대명아파트 전체 동의 지하주차장 1층","address":"전북특별자치도 완주군 삼례읍 충혼길 50(삼례대명아파트)","sido":"전북특별자치도","sigungu":"완주군","lat":35.904475,"lng":127.070469},{"id":"4721000-S201000003","type":"civildefense","name":"덕천하이트아파트 전체 동의 지하주차장 1층","address":"전북특별자치도 완주군 용진읍 가목길 21(덕천하이트아파트)","sido":"전북특별자치도","sigungu":"완주군","lat":35.923543,"lng":127.172074},{"id":"4721000-S201700005","type":"civildefense","name":"완주봉동주공2차아파트 전체 동의 지하주차장 1층","address":"전북특별자치도 완주군 봉동읍 봉동중앙로 53-20(봉동주공아파트)","sido":"전북특별자치도","sigungu":"완주군","lat":35.929045,"lng":127.15883},{"id":"4721000-S201700011","type":"civildefense","name":"혁신도시에코르3단지아파트 전체 동의 지하주차장 1층","address":"전북특별자치도 완주군 이서면 반교로 51(혁신도시 에코르 3단지)","sido":"전북특별자치도","sigungu":"완주군","lat":35.825616,"lng":127.022993},{"id":"4721000-S200300008","type":"civildefense","name":"삼례우성아파트 전체 동의 지하주차장 1층","address":"전북특별자치도 완주군 삼례읍 삼례로 333(삼례우성아파트)","sido":"전북특별자치도","sigungu":"완주군","lat":35.90733,"lng":127.074439},{"id":"4721000-S202500003","type":"civildefense","name":"전북체육고등학교","address":"전북특별자치도 완주군 소양면 원암로 46, 전북체육고등학교","sido":"전북특별자치도","sigungu":"완주군","lat":35.866547,"lng":127.249664},{"id":"4721000-S201700002","type":"civildefense","name":"라송센트럴카운티아파트 전체 동의 지하주차장 1층","address":"전북특별자치도 완주군 봉동읍 둔산1로 107(라송 센트럴카운티)","sido":"전북특별자치도","sigungu":"완주군","lat":35.960924,"lng":127.121885},{"id":"4721000-S200300009","type":"civildefense","name":"대영1차아파트 전체 동의 지하주차장 1층","address":"전북특별자치도 완주군 삼례읍 왕궁로 10(대영1차아파트)","sido":"전북특별자치도","sigungu":"완주군","lat":35.916469,"lng":127.080068},{"id":"4721000-S200000001","type":"civildefense","name":"봉동명진로얄2차아파트 전체 동의 지하주차장 1층","address":"전북특별자치도 완주군 봉동읍 봉동동서로 76(봉동2차 명진로얄아파트)","sido":"전북특별자치도","sigungu":"완주군","lat":35.936216,"lng":127.161116},{"id":"4721000-S200000002","type":"civildefense","name":"봉동한신1차아파트 전체 동의 지하주차장 1층","address":"전북특별자치도 완주군 봉동읍 봉동로 19(봉동한신아파트)","sido":"전북특별자치도","sigungu":"완주군","lat":35.927288,"lng":127.165784},{"id":"4721000-S202000001","type":"civildefense","name":"전북도립미술관 지하 1층","address":"전북특별자치도 완주군 구이면 모악산길 111-6, 전북도립미술관","sido":"전북특별자치도","sigungu":"완주군","lat":35.728209,"lng":127.107091},{"id":"4721000-S202500002","type":"civildefense","name":"완주삼봉엘에이치 아파트 주차장","address":"전북특별자치도 완주군 삼례읍 삼봉5로 60 (완주삼봉엘에이치아파트)","sido":"전북특별자치도","sigungu":"완주군","lat":35.922951,"lng":127.115633},{"id":"4721000-S200300004","type":"civildefense","name":"우석대학교 문화관 지하 1층","address":"전북특별자치도 완주군 삼례읍 삼례로 443, 우석대학교","sido":"전북특별자치도","sigungu":"완주군","lat":35.915142,"lng":127.067309},{"id":"4721000-S201700004","type":"civildefense","name":"완주봉동주공1차아파트 전체 동의 지하주차장 1층","address":"전북특별자치도 완주군 봉동읍 봉동중앙로 53-18(봉동주공아파트)","sido":"전북특별자치도","sigungu":"완주군","lat":35.92908,"lng":127.158916},{"id":"4721000-S200300002","type":"civildefense","name":"현대자동차 전주공장 지하 1층","address":"전북특별자치도 완주군 봉동읍 완주산단5로 163, 현대자동차","sido":"전북특별자치도","sigungu":"완주군","lat":35.943947,"lng":127.135453},{"id":"4721000-S201600002","type":"civildefense","name":"전주첨단코아루2차아파트 전체 동의 지하주차장 1층","address":"전북특별자치도 완주군 봉동읍 둔산1로 130(전주첨단코아루2차아파트)","sido":"전북특별자치도","sigungu":"완주군","lat":35.962864,"lng":127.122198},{"id":"4721000-S201700001","type":"civildefense","name":"벽산e-솔렌스힐 아파트 전체 동의 지하주차장 1층","address":"전북특별자치도 완주군 봉동읍 둔산3로 119-7(전주과학산업단지 벽산e-솔렌스힐아파트)","sido":"전북특별자치도","sigungu":"완주군","lat":35.965136,"lng":127.125368},{"id":"4721000-S201700007","type":"civildefense","name":"전북혁신도시코오롱하늘채아파트 전체 동의 지하주차장 1층","address":"전북특별자치도 완주군 이서면 출판로 25(혁신도시코오롱하늘채아파트)","sido":"전북특별자치도","sigungu":"완주군","lat":35.839776,"lng":127.055573},{"id":"4721000-S201700006","type":"civildefense","name":"이노힐스아파트 전체 동의 지하주차장 1층","address":"전북특별자치도 완주군 이서면 갈산1로 71(이노힐스아파트)","sido":"전북특별자치도","sigungu":"완주군","lat":35.837223,"lng":127.053538},{"id":"4721000-S202100004","type":"civildefense","name":"대둔산호텔 지하 1층","address":"전북특별자치도 완주군 운주면 대둔산공원길 37, 대둔산관광호텔","sido":"전북특별자치도","sigungu":"완주군","lat":36.116473,"lng":127.331473},{"id":"4721000-S202000003","type":"civildefense","name":"고산농협 지하 1층","address":"전북특별자치도 완주군 고산면 고산로 77, 고산농협","sido":"전북특별자치도","sigungu":"완주군","lat":35.975256,"lng":127.205479},{"id":"4721000-S200300001","type":"civildefense","name":"LS엠트론 기술교육아카데미 지하 1층","address":"전북특별자치도 완주군 봉동읍 봉동로 396, 완주군종합복지회관","sido":"전북특별자치도","sigungu":"완주군","lat":35.954262,"lng":127.149126},{"id":"4721000-S202400004","type":"civildefense","name":"완주삼봉우미린에코포레 지하주차장","address":"전북특별자치도 완주군 삼례읍 삼봉3로 50 (완주삼봉우미린에코포레)","sido":"전북특별자치도","sigungu":"완주군","lat":35.923449,"lng":127.122292},{"id":"4721000-S202500001","type":"civildefense","name":"완주삼봉3LH 아파트 지하주차장","address":"전북특별자치도 완주군 삼례읍 삼봉5로 55 (완주삼봉3LH아파트)","sido":"전북특별자치도","sigungu":"완주군","lat":35.922517,"lng":127.114945},{"id":"4721000-S202600001","type":"civildefense","name":"한국국토정보공사 공간정보연구원 지하주차장","address":"전북특별자치도 완주군 이서면 지사제2로 42, LX 공간정보연구원","sido":"전북특별자치도","sigungu":"완주군","lat":35.832532,"lng":127.021256},{"id":"4721000-S202500004","type":"civildefense","name":"완주 푸르지오 더 퍼스트 지하주차장","address":"전북특별자치도 완주군 삼례읍 삼봉3로 21 (완주 푸르지오 더 퍼스트)","sido":"전북특별자치도","sigungu":"완주군","lat":35.921263,"lng":127.121444},{"id":"4721000-S201000001","type":"civildefense","name":"동원맨션 전체 동의 지하주차장 1층","address":"전북특별자치도 완주군 삼례읍 삼봉로 111(동원맨션아파트)","sido":"전북특별자치도","sigungu":"완주군","lat":35.916907,"lng":127.082088},{"id":"4721000-S201700008","type":"civildefense","name":"전북혁신LH9단지아파트 전체 동의 지하주차장 1층","address":"전북특별자치도 완주군 이서면 갈산1로 72(전북혁신엘에이치아파트9단지)","sido":"전북특별자치도","sigungu":"완주군","lat":35.837024,"lng":127.053526},{"id":"4721000-S201000005","type":"civildefense","name":"용진원주아파트 전체 동의 지하주차장 1층","address":"전북특별자치도 완주군 용진읍 완주로 716(용진원주아파트)","sido":"전북특별자치도","sigungu":"완주군","lat":35.925092,"lng":127.172489},{"id":"4721000-S202000004","type":"civildefense","name":"신세대지큐빌아파트 전체 동의 지하주차장 1층","address":"전북특별자치도 완주군 상관면 신리로 99 (신세대 지큐빌)","sido":"전북특별자치도","sigungu":"완주군","lat":35.770954,"lng":127.207845},{"id":"4721000-S201000004","type":"civildefense","name":"용진대영아파트 전체 동의 지하주차장 1층","address":"전북특별자치도 완주군 용진읍 완주로 812(대영아파트)","sido":"전북특별자치도","sigungu":"완주군","lat":35.933669,"lng":127.173175},{"id":"4721000-S201700003","type":"civildefense","name":"모아엘가아파트 전체 동의 지하주차장 1층","address":"전북특별자치도 완주군 봉동읍 둔산1로 131 (모아엘가)","sido":"전북특별자치도","sigungu":"완주군","lat":35.963062,"lng":127.121831},{"id":"4731000-S201100002","type":"civildefense","name":"한국전력공사 진안지점 지하식당","address":"전북특별자치도 진안군 진안읍 대괭이길 7-21, 한국전력","sido":"전북특별자치도","sigungu":"진안군","lat":35.790274,"lng":127.422015},{"id":"4731000-S201500002","type":"civildefense","name":"진안군 의료원","address":"전북특별자치도 진안군 진안읍 진무로 1145","sido":"전북특별자치도","sigungu":"진안군","lat":35.794471,"lng":127.43273},{"id":"4731000-S201100001","type":"civildefense","name":"진안경찰서 지하","address":"전북특별자치도 진안군 진안읍 우화산길 3","sido":"전북특별자치도","sigungu":"진안군","lat":35.79134,"lng":127.425841},{"id":"4731000-S200000002","type":"civildefense","name":"진안군청 지하구내식당","address":"전북특별자치도 진안군 진안읍 중앙로 67, 진안군청","sido":"전북특별자치도","sigungu":"진안군","lat":35.791465,"lng":127.425378},{"id":"4731000-S201500003","type":"civildefense","name":"KT 진안지점","address":"전북특별자치도 진안군 진안읍 중앙로 78","sido":"전북특별자치도","sigungu":"진안군","lat":35.791804,"lng":127.426067},{"id":"4731000-S202200001","type":"civildefense","name":"진안읍 에코르아파트 지하주차장 1층","address":"전북특별자치도 진안군 진안읍 향교길 66(진안에코르)","sido":"전북특별자치도","sigungu":"진안군","lat":35.795427,"lng":127.427929},{"id":"4731000-S201500001","type":"civildefense","name":"진안성당 지하식당","address":"전북특별자치도 진안군 진안읍 대광길 22","sido":"전북특별자치도","sigungu":"진안군","lat":35.78803,"lng":127.420729},{"id":"4731000-S200100001","type":"civildefense","name":"문예체육회관 지하주차장 1층","address":"전북특별자치도 진안군 진안읍 진무로 1054-38, 문예체육관","sido":"전북특별자치도","sigungu":"진안군","lat":35.786337,"lng":127.426517},{"id":"4731000-S201500005","type":"civildefense","name":"홍삼스파 지하 기계실","address":"전북특별자치도 진안군 진안읍 외사양길 16-10, 홍삼스파","sido":"전북특별자치도","sigungu":"진안군","lat":35.776142,"lng":127.417525},{"id":"4731000-S201100005","type":"civildefense","name":"진안청소년수련관 지하","address":"전북특별자치도 진안군 진안읍 진무로 1054-14, 진안군 청소년 수련관","sido":"전북특별자치도","sigungu":"진안군","lat":35.788243,"lng":127.426435},{"id":"4731000-S201100003","type":"civildefense","name":"진안읍사무소 지하","address":"전북특별자치도 진안군 진안읍 대성길 3, 진안읍행정복지센터","sido":"전북특별자치도","sigungu":"진안군","lat":35.789269,"lng":127.42318},{"id":"4731000-S201500006","type":"civildefense","name":"진안 홍삼빌 지하 기계실","address":"전북특별자치도 진안군 진안읍 외사양길 16-14, 홍삼빌","sido":"전북특별자치도","sigungu":"진안군","lat":35.776741,"lng":127.416836},{"id":"4731000-S200000001","type":"civildefense","name":"대아월랑아파트 지하주차장 1층","address":"전북특별자치도 진안군 진안읍 대광1길 4(대아월랑아파트)","sido":"전북특별자치도","sigungu":"진안군","lat":35.787305,"lng":127.420746},{"id":"4731000-S201500004","type":"civildefense","name":"진안우체국 지하","address":"전북특별자치도 진안군 진안읍 진무로 1114, 진안우체국","sido":"전북특별자치도","sigungu":"진안군","lat":35.792056,"lng":127.430364},{"id":"4741000-S201100001","type":"civildefense","name":"무풍면 행정복지센터 지하1층","address":"전북특별자치도 무주군 무풍면 현내로 171","sido":"전북특별자치도","sigungu":"무주군","lat":35.969901,"lng":127.844442},{"id":"4741000-S202100002","type":"civildefense","name":"미래드림2차아파트 지하주차장 1층","address":"전북특별자치도 무주군 무주읍 당산강변로 224(미래드림2차)","sido":"전북특별자치도","sigungu":"무주군","lat":36.005563,"lng":127.66553},{"id":"4741000-S201100002","type":"civildefense","name":"설천면 행정복지센터 지하1층","address":"전북특별자치도 무주군 설천면 무설로 1607","sido":"전북특별자치도","sigungu":"무주군","lat":36.008041,"lng":127.789048},{"id":"4741000-S198800001","type":"civildefense","name":"무주군청 지하1층 구내식당","address":"전북특별자치도 무주군 무주읍 주계로 97 (무주군청)","sido":"전북특별자치도","sigungu":"무주군","lat":36.006496,"lng":127.660874},{"id":"4741000-S201100003","type":"civildefense","name":"안성면 행정복지센터 지하1층","address":"전북특별자치도 무주군 안성면 안성로 246-17","sido":"전북특별자치도","sigungu":"무주군","lat":35.863522,"lng":127.652863},{"id":"4741000-S201000001","type":"civildefense","name":"보건의료원 장례식장 지하1~2층","address":"전북특별자치도 무주군 무주읍 한풍루로 413 (무주군보건의료원)","sido":"전북특별자치도","sigungu":"무주군","lat":36.005727,"lng":127.671725},{"id":"4741000-S201600001","type":"civildefense","name":"무주 부영아파트 지하주차장 1층","address":"전북특별자치도 무주군 무주읍 신교로 49 (무주읍내리사랑으로부영아파트)","sido":"전북특별자치도","sigungu":"무주군","lat":36.009883,"lng":127.667946},{"id":"4741000-S200100001","type":"civildefense","name":"무주군청 지하주차장 1층","address":"전북특별자치도 무주군 무주읍 주계로 97 (무주군청)","sido":"전북특별자치도","sigungu":"무주군","lat":36.006496,"lng":127.660874},